Time(s),X(m),Y(m),Z(m),Vx(m/s),Vy(m/s),Vz(m/s),Roll(rad),Pitch(rad),Yaw(rad),Mass(kg),Thrust(N),Mach,Altitude(m)
0.000000,0.000000,100.000000,0.000000,200.000000,50.000000,0.000000,0.000000,0.200000,0.000000,500.000000,0.000000,0.606500,100.000000
0.010000,1.999820,100.499094,0.000000,199.982046,49.909401,0.000000,0.000000,0.199963,0.000000,499.746835,25.284410,0.606387,100.499094
0.020000,3.999467,100.997282,0.000000,199.964614,49.818820,0.000000,0.000000,0.199997,0.000072,499.493671,50.504727,0.606276,100.997282
0.030000,5.998944,101.494565,-0.000000,199.947709,49.728237,-0.000009,0.000000,0.200104,0.000217,499.240506,75.660952,0.606167,101.494565
0.040000,7.998257,101.990941,-0.000000,199.931335,49.637634,-0.000036,0.000000,0.200282,0.000433,498.987342,100.753084,0.606060,101.990941
0.050000,9.997412,102.486411,-0.000001,199.915495,49.546994,-0.000091,0.000000,0.200533,0.000722,498.734177,125.781125,0.605954,102.486411
0.060000,11.996414,102.980974,-0.000003,199.900194,49.456299,-0.000181,0.000000,0.200858,0.001083,498.481013,150.745073,0.605849,102.980974
0.070000,13.995268,103.474629,-0.000006,199.885435,49.365530,-0.000316,0.000000,0.201256,0.001516,498.227848,175.644929,0.605746,103.474629
0.080000,15.993981,103.967376,-0.000011,199.871223,49.274668,-0.000504,0.000000,0.201730,0.002022,497.974684,200.480692,0.605645,103.967376
0.090000,17.992556,104.459213,-0.000019,199.857561,49.183696,-0.000754,0.000000,0.202278,0.002600,497.721519,225.252363,0.605545,104.459213
0.100000,19.991001,104.950139,-0.000030,199.844453,49.092595,-0.001074,0.000000,0.202903,0.003250,497.468354,249.959942,0.605447,104.950139
0.110000,21.989320,105.440152,-0.000044,199.831904,49.001346,-0.001473,0.000000,0.203605,0.003972,497.215190,274.603429,0.605351,105.440152
0.120000,23.987519,105.929252,-0.000064,199.819916,48.909931,-0.001958,0.000000,0.204384,0.004766,496.962025,299.182823,0.605256,105.929252
0.130000,25.985604,106.417435,-0.000089,199.808495,48.818330,-0.002538,0.000000,0.205243,0.005633,496.708861,323.698125,0.605163,106.417435
0.140000,27.983580,106.904700,-0.000122,199.797644,48.726525,-0.003220,0.000000,0.206182,0.006572,496.455696,348.149335,0.605071,106.904700
0.150000,29.981454,107.391045,-0.000162,199.787367,48.634496,-0.004013,0.000000,0.207201,0.007584,496.202532,372.536452,0.604981,107.391045
0.160000,31.979231,107.876467,-0.000211,199.777669,48.542224,-0.004925,0.000000,0.208304,0.008668,495.949367,396.859478,0.604892,107.876467
0.170000,33.976916,108.360964,-0.000271,199.768553,48.449688,-0.005962,0.000000,0.209489,0.009824,495.696203,421.118411,0.604805,108.360964
0.180000,35.974516,108.844533,-0.000342,199.760023,48.356870,-0.007132,0.000000,0.210760,0.011052,495.443038,445.313251,0.604720,108.844533
0.190000,37.972037,109.327170,-0.000426,199.752084,48.263749,-0.008443,0.000000,0.212117,0.012353,495.189873,469.443999,0.604636,109.327170
0.200000,39.969485,109.808873,-0.000525,199.744740,48.170303,-0.009902,0.000000,0.213563,0.013726,494.936709,493.510655,0.604554,109.808873
0.210000,41.966865,110.289639,-0.000640,199.737995,48.076514,-0.011516,0.000000,0.215097,0.015171,494.683544,517.513219,0.604473,110.289639
0.220000,43.964183,110.769462,-0.000773,199.731853,47.982358,-0.013292,0.000000,0.216723,0.016689,494.430380,541.451690,0.604394,110.769462
0.230000,45.961446,111.248340,-0.000926,199.726319,47.887816,-0.015237,0.000000,0.218441,0.018280,494.177215,565.326070,0.604316,111.248340
0.240000,47.958660,111.726269,-0.001099,199.721397,47.792865,-0.017357,0.000000,0.220254,0.019942,493.924051,589.136356,0.604241,111.726269
0.250000,49.955831,112.203244,-0.001296,199.717091,47.697484,-0.019659,0.000000,0.222164,0.021677,493.670886,612.882551,0.604166,112.203244
0.260000,51.952965,112.679260,-0.001517,199.713407,47.601649,-0.022150,0.000000,0.224172,0.023485,493.417722,636.564653,0.604094,112.679260
0.270000,53.950069,113.154314,-0.001766,199.710347,47.505338,-0.024836,0.000000,0.226281,0.025365,493.164557,660.182663,0.604022,113.154314
0.280000,55.947148,113.628399,-0.002043,199.707917,47.408528,-0.027723,0.000000,0.228492,0.027318,492.911392,683.736581,0.603953,113.628399
0.290000,57.944209,114.101511,-0.002351,199.706122,47.311194,-0.030816,0.000000,0.230808,0.029343,492.658228,707.226406,0.603885,114.101511
0.300000,59.941259,114.573644,-0.002692,199.704965,47.213313,-0.034122,0.000000,0.233231,0.031440,492.405063,730.652139,0.603818,114.573644
0.310000,61.938303,115.044793,-0.003069,199.704452,47.114860,-0.037647,0.000000,0.235764,0.033610,492.151899,754.013780,0.603754,115.044793
0.320000,63.935349,115.514951,-0.003483,199.704587,47.015810,-0.041394,0.000000,0.238409,0.035853,491.898734,777.311328,0.603690,115.514951
0.330000,65.932403,115.984112,-0.003937,199.705375,46.916136,-0.045371,0.000000,0.241169,0.038168,491.645570,800.544784,0.603629,115.984112
0.340000,67.929471,116.452270,-0.004432,199.706819,46.815814,-0.049581,0.000000,0.244046,0.040556,491.392405,823.714148,0.603569,116.452270
0.350000,69.926560,116.919418,-0.004973,199.708926,46.714815,-0.054030,0.000000,0.247043,0.043016,491.139241,846.819420,0.603510,116.919418
0.360000,71.923677,117.385549,-0.005560,199.711698,46.613113,-0.058723,0.000000,0.250164,0.045549,490.886076,869.860599,0.603453,117.385549
0.370000,73.920829,117.850656,-0.006196,199.715142,46.510679,-0.063662,0.000000,0.253410,0.048155,490.632911,892.837686,0.603398,117.850656
0.380000,75.918021,118.314731,-0.006885,199.719261,46.407485,-0.068854,0.000000,0.256786,0.050833,490.379747,915.750681,0.603344,118.314731
0.390000,77.915262,118.777766,-0.007628,199.724060,46.303502,-0.074300,0.000000,0.260294,0.053584,490.126582,938.599583,0.603292,118.777766
0.400000,79.912557,119.239753,-0.008428,199.729544,46.198699,-0.080006,0.000000,0.263938,0.056408,489.873418,961.384394,0.603241,119.239753
0.410000,81.909915,119.700684,-0.009288,199.735716,46.093045,-0.085974,0.000000,0.267721,0.059305,489.620253,984.105111,0.603192,119.700684
0.420000,83.907340,120.160549,-0.010210,199.742582,45.986509,-0.092207,0.000000,0.271647,0.062274,489.367089,1006.761737,0.603144,120.160549
0.430000,85.904842,120.619339,-0.011197,199.750144,45.879058,-0.098708,0.000000,0.275720,0.065316,489.113924,1029.354270,0.603098,120.619339
0.440000,87.902426,121.077046,-0.012252,199.758408,45.770660,-0.105479,0.000000,0.279942,0.068430,488.860759,1051.882711,0.603054,121.077046
0.450000,89.900100,121.533659,-0.013377,199.767378,45.661281,-0.112522,0.000000,0.284320,0.071618,488.607595,1074.347060,0.603011,121.533659
0.460000,91.897870,121.989167,-0.014575,199.777056,45.550884,-0.119838,0.000000,0.288855,0.074878,488.354430,1096.747316,0.602969,121.989167
0.470000,93.895745,122.443562,-0.015850,199.787447,45.439436,-0.127429,0.000000,0.293553,0.078212,488.101266,1119.083480,0.602929,122.443562
0.480000,95.893730,122.896831,-0.017203,199.798555,45.326898,-0.135295,0.000000,0.298419,0.081618,487.848101,1141.355552,0.602891,122.896831
0.490000,97.891834,123.348963,-0.018637,199.810381,45.213234,-0.143436,0.000000,0.303455,0.085097,487.594937,1163.563531,0.602854,123.348963
0.500000,99.890063,123.799947,-0.020155,199.822930,45.098403,-0.151853,0.000000,0.308668,0.088649,487.341772,1185.707419,0.602819,123.799947
0.510000,101.888425,124.249771,-0.021761,199.836204,44.982368,-0.160543,0.000000,0.314062,0.092274,487.088608,1207.787214,0.602785,124.249771
0.520000,103.886927,124.698422,-0.023456,199.850204,44.865086,-0.169505,0.000000,0.319642,0.095972,486.835443,1229.802916,0.602752,124.698422
0.530000,105.885577,125.145887,-0.025243,199.864934,44.746516,-0.178738,0.000000,0.325413,0.099743,486.582278,1251.754527,0.602721,125.145887
0.540000,107.884381,125.592153,-0.027126,199.880395,44.626615,-0.188238,0.000000,0.331381,0.103587,486.329114,1273.642045,0.602692,125.592153
0.550000,109.883347,126.037206,-0.029106,199.896588,44.505337,-0.198003,0.000000,0.337550,0.107504,486.075949,1295.465470,0.602664,126.037206
0.560000,111.882482,126.481033,-0.031186,199.913513,44.382638,-0.208026,0.000000,0.343927,0.111494,485.822785,1317.224804,0.602637,126.481033
0.570000,113.881793,126.923617,-0.033369,199.931171,44.258471,-0.218304,0.000000,0.350518,0.115557,485.569620,1338.920045,0.602612,126.923617
0.580000,115.881289,127.364945,-0.035657,199.949561,44.132787,-0.228830,0.000000,0.357328,0.119694,485.316456,1360.551194,0.602588,127.364945
0.590000,117.880976,127.805001,-0.038053,199.968682,44.005537,-0.239597,0.000000,0.364363,0.123902,485.063291,1382.118250,0.602565,127.805001
0.600000,119.880861,128.243767,-0.040559,199.988532,43.876669,-0.250597,0.000000,0.371631,0.128180,484.810127,1403.621215,0.602544,128.243767
0.610000,121.880952,128.681229,-0.043177,200.009109,43.746132,-0.261819,0.000000,0.379137,0.132525,484.556962,1425.060087,0.602524,128.681229
0.620000,123.881256,129.117367,-0.045910,200.030410,43.613870,-0.273255,0.000000,0.386888,0.136933,484.303797,1446.434866,0.602505,129.117367
0.630000,125.881781,129.552166,-0.048759,200.052429,43.479829,-0.284889,0.000000,0.394893,0.141402,484.050633,1467.745554,0.602488,129.552166
0.640000,127.882532,129.985605,-0.051726,200.075161,43.343952,-0.296709,0.000000,0.403157,0.145930,483.797468,1488.992149,0.602471,129.985605
0.650000,129.883518,130.417667,-0.054813,200.098599,43.206178,-0.308698,0.000000,0.411688,0.150513,483.544304,1510.174651,0.602456,130.417667
0.660000,131.884746,130.848332,-0.058021,200.122736,43.066448,-0.320839,0.000000,0.420494,0.155148,483.291139,1531.293062,0.602442,130.848332
0.670000,133.886221,131.277579,-0.061353,200.147562,42.924700,-0.333112,0.000000,0.429583,0.159834,483.037975,1552.347380,0.602428,131.277579
0.680000,135.887952,131.705387,-0.064807,200.173066,42.780869,-0.345495,0.000000,0.438964,0.164567,482.784810,1573.337606,0.602416,131.705387
0.690000,137.889944,132.131736,-0.068387,200.199236,42.634888,-0.357965,0.000000,0.448644,0.169344,482.531646,1594.263740,0.602405,132.131736
0.700000,139.892205,132.556603,-0.072092,200.226057,42.486691,-0.370496,0.000000,0.458632,0.174163,482.278481,1615.125781,0.602394,132.556603
0.710000,141.894740,132.979965,-0.075923,200.253513,42.336207,-0.383058,0.000000,0.468938,0.179021,482.025316,1635.923730,0.602385,132.979965
0.720000,143.897556,133.401799,-0.079879,200.281588,42.183364,-0.395621,0.000000,0.479571,0.183915,481.772152,1656.657587,0.602375,133.401799
0.730000,145.900658,133.822080,-0.083960,200.310259,42.028088,-0.408151,0.000000,0.490540,0.188843,481.518987,1677.327351,0.602367,133.822080
0.740000,147.904054,134.240783,-0.088166,200.339505,41.870304,-0.420610,0.000000,0.501855,0.193801,481.265823,1697.933024,0.602359,134.240783
0.750000,149.907747,134.657882,-0.092496,200.369302,41.709934,-0.432959,0.000000,0.513526,0.198788,481.012658,1718.474603,0.602351,134.657882
0.760000,151.911743,135.073351,-0.096948,200.399621,41.546898,-0.445153,0.000000,0.525564,0.203800,480.759494,1738.952091,0.602344,135.073351
0.770000,153.916047,135.487162,-0.101519,200.430432,41.381113,-0.457146,0.000000,0.537980,0.208835,480.506329,1759.365486,0.602337,135.487162
0.780000,155.920664,135.899287,-0.106208,200.461702,41.212495,-0.468885,0.000000,0.550784,0.213891,480.253165,1779.714789,0.602330,135.899287
0.790000,157.925598,136.309697,-0.111011,200.493394,41.040959,-0.480315,0.000000,0.563989,0.218964,480.000000,1800.000000,0.602323,136.309697
0.800000,159.930853,136.718361,-0.115925,200.525468,40.866416,-0.491376,0.000000,0.577606,0.224052,479.746835,1820.221118,0.602315,136.718361
0.810000,161.936432,137.125249,-0.120945,200.557881,40.688776,-0.502002,0.000000,0.591648,0.229152,479.493671,1840.378145,0.602307,137.125249
0.820000,163.942337,137.530328,-0.126066,200.590585,40.507948,-0.512122,0.000000,0.606127,0.234262,479.240506,1860.471078,0.602299,137.530328
0.830000,165.948573,137.933566,-0.131283,200.623528,40.323838,-0.521660,0.000000,0.621055,0.239380,478.987342,1880.499920,0.602290,137.933566
0.840000,167.955139,138.334930,-0.136588,200.656654,40.136350,-0.530531,0.000000,0.636448,0.244503,478.734177,1900.464669,0.602280,138.334930
0.850000,169.962038,138.734384,-0.141974,200.689902,39.945388,-0.538647,0.000000,0.652317,0.249628,478.481013,1920.365326,0.602268,138.734384
0.860000,171.969270,139.131892,-0.147434,200.723206,39.750855,-0.545909,0.000000,0.668678,0.254753,478.227848,1940.201891,0.602256,139.131892
0.870000,173.976835,139.527419,-0.152956,200.756494,39.552652,-0.552211,0.000000,0.685545,0.259875,477.974684,1959.974363,0.602242,139.527419
0.880000,175.984732,139.920926,-0.158530,200.789689,39.350680,-0.557439,0.000000,0.702934,0.264993,477.721519,1979.682743,0.602226,139.920926
0.890000,177.992959,140.312374,-0.164145,200.822708,39.144840,-0.561466,0.000000,0.720860,0.270104,477.468354,1999.327031,0.602207,140.312374
0.900000,180.001514,140.701724,-0.169786,200.855462,38.935033,-0.564157,0.000000,0.739338,0.275205,477.215190,2018.907226,0.602187,140.701724
0.910000,182.010392,141.088936,-0.175440,200.887853,38.721163,-0.565365,0.000000,0.758386,0.280295,476.962025,2038.423330,0.602164,141.088936
0.920000,184.019590,141.473967,-0.181089,200.919777,38.503134,-0.564929,0.000000,0.778021,0.285370,476.708861,2057.875340,0.602138,141.473967
0.930000,186.029101,141.856776,-0.186716,200.951123,38.280855,-0.562673,0.000000,0.798260,0.290429,476.455696,2077.263259,0.602108,141.856776
0.940000,188.038919,142.237318,-0.192300,200.981771,38.054238,-0.558406,0.000000,0.819122,0.295470,476.202532,2096.587085,0.602075,142.237318
0.950000,190.049035,142.615550,-0.197819,201.011591,37.823202,-0.551920,0.000000,0.840625,0.300490,475.949367,2115.846819,0.602037,142.615550
0.960000,192.059439,142.991427,-0.203249,201.040446,37.587674,-0.542988,0.000000,0.862788,0.305488,475.696203,2135.042461,0.601995,142.991427
0.970000,194.070121,143.364903,-0.208563,201.068188,37.347588,-0.531358,0.000000,0.885631,0.310460,475.443038,2154.174011,0.601949,143.364903
0.980000,196.081068,143.735932,-0.213730,201.094657,37.102896,-0.516759,0.000000,0.909176,0.315406,475.189873,2173.241468,0.601897,143.735932
0.990000,198.092265,144.104468,-0.218719,201.119683,36.853563,-0.498889,0.000000,0.933441,0.320323,474.936709,2192.244833,0.601839,144.104468
1.000000,200.103696,144.470463,-0.223493,201.143085,36.599577,-0.477421,0.000000,0.958451,0.325209,474.683544,2211.184105,0.601775,144.470463
1.010000,202.115342,144.833873,-0.228013,201.164667,36.340949,-0.451991,0.000000,0.984226,0.330063,474.430380,2230.059285,0.601704,144.833873
1.020000,204.127184,145.194650,-0.232235,201.184222,36.077726,-0.422202,0.000000,1.010790,0.334882,474.177215,2248.870373,0.601625,145.194650
1.030000,206.139200,145.552750,-0.236111,201.201524,35.809994,-0.387615,0.000000,1.038166,0.339664,473.924051,2267.617369,0.601539,145.552750
1.040000,208.151363,145.908129,-0.239589,201.216334,35.537891,-0.347746,0.000000,1.066380,0.344408,473.670886,2286.300272,0.601444,145.908129
1.050000,210.163647,146.260745,-0.242609,201.228395,35.261617,-0.302062,0.000000,1.095455,0.349112,473.417722,2304.919083,0.601341,146.260745
1.060000,212.176021,146.610560,-0.245109,201.237432,34.981456,-0.249977,0.000000,1.125418,0.353775,473.164557,2323.473802,0.601227,146.610560
1.070000,214.188453,146.957537,-0.247018,201.243146,34.697788,-0.190846,0.000000,1.156296,0.358394,472.911392,2341.964429,0.601103,146.957537
1.080000,216.200905,147.301649,-0.248257,201.245218,34.411120,-0.123961,0.000000,1.188116,0.362968,472.658228,2360.390963,0.600969,147.301649
1.090000,218.213338,147.642870,-0.248743,201.243300,34.122117,-0.048550,0.000000,1.220905,0.367495,472.405063,2378.753405,0.600823,147.642870
1.100000,220.225708,147.981186,-0.248381,201.237016,33.831642,0.036222,0.000000,1.254694,0.371975,472.151899,2397.051755,0.600664,147.981186
1.110000,222.237968,148.316594,-0.247068,201.225954,33.540805,0.131251,0.000000,1.289511,0.376405,471.898734,2415.286012,0.600493,148.316594
1.120000,224.250064,148.649105,-0.244693,201.209664,33.251028,0.237475,0.000000,1.325388,0.380783,471.645570,2433.456177,0.600309,148.649105
1.130000,226.261941,148.978746,-0.241135,201.187645,32.964116,0.355854,0.000000,1.362356,0.385110,471.392405,2451.562250,0.600111,148.978746
1.140000,228.273534,149.305569,-0.236262,201.159343,32.682350,0.487319,0.000000,1.400448,0.389382,471.139241,2469.604230,0.599898,149.305569
1.150000,230.284775,149.629655,-0.229935,201.124135,32.408580,0.632701,0.000000,1.439695,0.393600,470.886076,2487.582118,0.599670,149.629655
1.160000,232.295589,149.951118,-0.222008,201.081323,32.146329,0.792615,0.000000,1.480134,0.397761,470.632911,2505.495914,0.599427,149.951118
1.170000,234.305890,150.270117,-0.212335,201.030119,31.899871,0.967297,0.000000,1.521797,0.401864,470.379747,2523.345618,0.599169,150.270117
1.180000,236.315586,150.586860,-0.200772,200.969640,31.674259,1.156383,0.000000,1.564723,0.405909,470.126582,2541.131229,0.598894,150.586860
1.190000,238.324575,150.901612,-0.187185,200.898910,31.475252,1.358642,0.000000,1.608946,0.409895,469.873418,2558.852748,0.598603,150.901612
1.200000,240.332744,151.214703,-0.171468,200.816875,31.309084,1.571714,0.000000,1.654506,0.413819,469.620253,2576.510175,0.598296,151.214703
1.210000,242.339968,151.526523,-0.153549,200.722435,31.182022,1.791908,0.000000,1.701440,0.417682,469.367089,2594.103509,0.597971,151.526523
1.220000,244.346113,151.837521,-0.133407,200.614499,31.099750,2.014210,0.000000,1.749787,0.421481,469.113924,2611.632751,0.597628,151.837521
1.230000,246.351051,152.148189,-0.111078,200.493706,31.066826,2.232889,0.000000,1.799575,0.425217,468.860759,2629.097901,0.597271,152.148189
1.240000,248.354681,152.459029,-0.086657,200.363016,31.083992,2.442133,0.000000,1.850801,0.428889,468.607595,2646.498959,0.596908,152.459029
1.250000,250.356909,152.770516,-0.060297,200.222803,31.148676,2.635978,0.000000,1.903464,0.432495,468.354430,2663.835924,0.596538,152.770516
1.260000,252.357646,153.083082,-0.032202,200.073682,31.256683,2.809536,0.000000,1.957565,0.436035,468.101266,2681.108797,0.596163,153.083082
1.270000,254.356810,153.397111,-0.002608,199.916411,31.402807,2.959313,0.000000,2.013101,0.439509,467.848101,2698.317577,0.595780,153.397111
1.280000,256.354328,153.712925,0.028224,199.751793,31.581474,3.083227,0.000000,2.070071,0.442914,467.594937,2715.462266,0.595391,153.712925
1.290000,258.350134,154.030798,0.060028,199.580606,31.787235,3.180402,0.000000,2.128474,0.446252,467.341772,2732.542862,0.594995,154.030798
1.300000,260.344169,154.350949,0.092537,199.403558,32.015090,3.250872,0.000000,2.188308,0.449521,467.088608,2749.559365,0.594592,154.350949
1.310000,262.336382,154.673555,0.125489,199.221274,32.260625,3.295276,0.000000,2.249574,0.452720,466.835443,2766.511777,0.594181,154.673555
1.320000,264.326725,154.998755,0.158636,199.034295,32.520042,3.314616,0.000000,2.312268,0.455850,466.582278,2783.400096,0.593764,154.998755
1.330000,266.315156,155.326656,0.191736,198.843092,32.790116,3.310065,0.000000,2.376389,0.458910,466.329114,2800.224323,0.593339,155.326656
1.340000,268.301637,155.657338,0.224565,198.648080,33.068123,3.282848,0.000000,2.441937,0.461899,466.075949,2816.984458,0.592908,155.657338
1.350000,270.286133,155.990855,0.256906,198.449632,33.351761,3.234163,0.000000,2.508908,0.464817,465.822785,2833.680500,0.592469,155.990855
1.360000,272.268614,156.327246,0.288558,198.248099,33.639070,3.165135,0.000000,2.577302,0.467664,465.569620,2850.312450,0.592024,156.327246
1.370000,274.249052,156.666530,0.319326,198.043819,33.928367,3.076793,0.000000,2.647117,0.470440,465.316456,2866.880308,0.591573,156.666530
1.380000,276.227423,157.008711,0.349026,197.837134,34.218190,2.970062,0.000000,2.718350,0.473144,465.063291,2883.384073,0.591115,157.008711
1.390000,278.203707,157.353784,0.377484,197.628399,34.507247,2.845759,0.000000,2.791000,0.475775,464.810127,2899.823746,0.590653,157.353784
1.400000,280.177887,157.701728,0.404530,197.417995,34.794375,2.704597,0.000000,2.865063,0.478335,464.556962,2916.199327,0.590185,157.701728
1.410000,282.149951,158.052513,0.430002,197.206354,35.078500,2.547191,0.000000,2.940538,0.480823,464.303797,2932.510816,0.589714,158.052513
1.420000,284.119891,158.406099,0.453742,196.993980,35.358595,2.374062,0.000000,3.017421,0.483238,464.050633,2948.758212,0.589240,158.406099
1.430000,286.087706,158.762435,0.475599,196.781515,35.633607,2.185649,0.000000,3.095707,0.485581,463.797468,2964.941516,0.588764,158.762435
1.440000,288.053405,159.121458,0.495422,196.569889,35.902321,1.982323,0.000000,3.175172,0.487852,463.544304,2981.060727,0.588289,159.121458
1.450000,290.017013,159.483087,0.513067,196.360802,36.162949,1.764480,0.000000,3.255807,0.490051,463.291139,2997.115847,0.587818,159.483087
1.460000,291.978606,159.847196,0.528395,196.159317,36.410859,1.532770,0.000000,3.337585,0.492178,463.037975,3013.106874,0.587364,159.847196
1.470000,293.939129,160.212782,0.541371,196.052262,36.558577,1.297686,0.000000,3.420157,0.494233,462.784810,3029.033809,0.587132,160.212782
1.480000,295.899100,160.573132,0.552763,195.997164,36.034980,1.139119,0.000000,3.501384,0.496216,462.531646,3044.896651,0.586691,160.573132
1.490000,297.858453,160.928097,0.562743,195.935323,35.496577,0.998063,0.000000,3.581231,0.498127,462.278481,3060.695401,0.586227,160.928097
1.500000,299.817170,161.277629,0.571484,195.871691,34.953128,0.874038,0.000000,3.659689,0.499967,462.025316,3076.430059,0.585760,161.277629
1.510000,301.775246,161.621703,0.579156,195.807524,34.407475,0.767232,0.000000,3.736755,0.501736,461.772152,3092.100625,0.585295,161.621703
1.520000,303.732680,161.960317,0.585936,195.743394,33.861344,0.678023,0.000000,3.812427,0.503434,461.518987,3107.707098,0.584834,161.960317
1.530000,305.689476,162.293479,0.592005,195.679626,33.316196,0.606911,0.000000,3.886706,0.505062,461.265823,3123.249479,0.584379,162.293479
1.540000,307.645640,162.621214,0.597550,195.616416,32.773473,0.554482,0.000000,3.959591,0.506619,461.012658,3138.727768,0.583932,162.621214
1.550000,309.601179,162.943561,0.602764,195.553868,32.234710,0.521403,0.000000,4.031082,0.508107,460.759494,3154.141964,0.583492,162.943561
1.560000,311.556099,163.260577,0.607848,195.492013,31.701598,0.508397,0.000000,4.101181,0.509526,460.506329,3169.492069,0.583061,163.260577
1.570000,313.510407,163.572337,0.613010,195.430812,31.176042,0.516223,0.000000,4.169888,0.510876,460.253165,3184.778080,0.582639,163.572337
1.580000,315.464108,163.878939,0.618467,195.370155,30.660209,0.545646,0.000000,4.237208,0.512158,460.000000,3200.000000,0.582228,163.878939
1.590000,317.417207,164.180505,0.624441,195.309864,30.156576,0.597383,0.000000,4.303167,0.513371,459.746835,3215.157827,0.581827,164.180505
1.600000,319.369704,164.477185,0.631161,195.249686,29.667978,0.672047,0.000000,4.367795,0.514518,459.493671,3230.251562,0.581437,164.477185
1.610000,321.321597,164.769161,0.638862,195.189298,29.197643,0.770050,0.000000,4.431118,0.515598,459.240506,3245.281205,0.581057,164.769161
1.620000,323.272880,165.056653,0.647776,195.128309,28.749197,0.891471,0.000000,4.493161,0.516611,458.987342,3260.246755,0.580689,165.056653
1.630000,325.223543,165.339919,0.658135,195.066269,28.326627,1.035900,0.000000,4.553952,0.517560,458.734177,3275.148213,0.580332,165.339919
1.640000,327.173570,165.619261,0.670158,195.002691,27.934174,1.202254,0.000000,4.613516,0.518443,458.481013,3289.985579,0.579987,165.619261
1.650000,329.122940,165.895022,0.684044,194.937084,27.576124,1.388608,0.000000,4.671876,0.519262,458.227848,3304.758853,0.579652,165.895022
1.660000,331.071630,166.167587,0.699965,194.868994,27.256506,1.592074,0.000000,4.729058,0.520018,457.974684,3319.468034,0.579329,166.167587
1.670000,333.019611,166.437374,0.718053,194.798066,26.978707,1.808801,0.000000,4.785072,0.520710,457.721519,3334.113123,0.579017,166.437374
1.680000,334.966852,166.704825,0.738394,194.724087,26.745064,2.034138,0.000000,4.839916,0.521341,457.468354,3348.694120,0.578715,166.704825
1.690000,336.913322,166.970391,0.761024,194.647029,26.556550,2.262967,0.000000,4.893593,0.521910,457.215190,3363.211024,0.578424,166.970391
1.700000,338.859013,167.234516,0.785915,194.569099,26.412568,2.489129,0.000000,4.946120,0.522419,456.962025,3377.663836,0.578150,167.234516
1.710000,340.803953,167.497607,0.812981,194.494012,26.309078,2.706572,0.000000,4.997539,0.522867,456.708861,3392.052556,0.577900,167.497607
1.720000,342.748176,167.760013,0.842101,194.422223,26.240573,2.912040,0.000000,5.047894,0.523257,456.455696,3406.377183,0.577674,167.760013
1.730000,344.691718,168.022027,0.873134,194.354290,26.201379,3.103320,0.000000,5.097227,0.523588,456.202532,3420.637718,0.577471,168.022027
1.740000,346.634626,168.283887,0.905926,194.290795,26.186038,3.279162,0.000000,5.145578,0.523862,455.949367,3434.834161,0.577289,168.283887
1.750000,348.576949,168.545783,0.940317,194.232282,26.189559,3.439122,0.000000,5.192986,0.524079,455.696203,3448.966512,0.577130,168.545783
1.760000,350.518741,168.807858,0.976151,194.179219,26.207554,3.583356,0.000000,5.239490,0.524240,455.443038,3463.034770,0.576992,168.807858
1.770000,352.460061,169.070221,1.013275,194.131983,26.236272,3.712440,0.000000,5.285128,0.524346,455.189873,3477.038936,0.576874,169.070221
1.780000,354.400970,169.332947,1.051547,194.090853,26.272576,3.827208,0.000000,5.329936,0.524399,454.936709,3490.979010,0.576776,169.332947
1.790000,356.341530,169.596085,1.090834,194.056022,26.313883,3.928634,0.000000,5.373951,0.524398,454.683544,3504.854991,0.576699,169.596085
1.800000,358.281806,169.859666,1.131011,194.027600,26.358083,4.017750,0.000000,5.417208,0.524345,454.430380,3518.666880,0.576640,169.859666
1.810000,360.221862,170.123701,1.171967,194.005631,26.403469,4.095587,0.000000,5.459742,0.524240,454.177215,3532.414677,0.576601,170.123701
1.820000,362.161763,170.388188,1.213598,193.990102,26.448665,4.163142,0.000000,5.501587,0.524085,453.924051,3546.098382,0.576579,170.388188
1.830000,364.101573,170.653113,1.255812,193.980952,26.492564,4.221356,0.000000,5.542776,0.523881,453.670886,3559.717994,0.576576,170.653113
1.840000,366.041354,170.918456,1.298523,193.978086,26.534279,4.271107,0.000000,5.583344,0.523628,453.417722,3573.273514,0.576589,170.918456
1.850000,367.981167,171.184187,1.341655,193.981375,26.573098,4.313204,0.000000,5.623321,0.523328,453.164557,3586.764942,0.576618,171.184187
1.860000,369.921074,171.450271,1.385139,193.990670,26.608452,4.348388,0.000000,5.662741,0.522981,452.911392,3600.192277,0.576664,171.450271
1.870000,371.861132,171.716670,1.428912,194.005804,26.639883,4.377336,0.000000,5.701635,0.522588,452.658228,3613.555520,0.576724,171.716670
1.880000,373.801398,171.983341,1.472919,194.026594,26.667026,4.400666,0.000000,5.740034,0.522151,452.405063,3626.854671,0.576799,171.983341
1.890000,375.741927,172.250236,1.517108,194.052848,26.689586,4.418941,0.000000,5.777970,0.521670,452.151899,3640.089729,0.576887,172.250236
1.900000,377.682770,172.517310,1.561435,194.084365,26.707328,4.432671,0.000000,5.815472,0.521146,451.898734,3653.260695,0.576989,172.517310
1.910000,379.623980,172.784510,1.605858,194.120940,26.720063,4.442325,0.000000,5.852571,0.520582,451.645570,3666.367569,0.577103,172.784510
1.920000,381.565603,173.051787,1.650342,194.162363,26.727637,4.448330,0.000000,5.889298,0.519976,451.392405,3679.410351,0.577229,173.051787
1.930000,383.507688,173.319086,1.694852,194.208419,26.729926,4.451077,0.000000,5.925682,0.519331,451.139241,3692.389040,0.577366,173.319086
1.940000,385.450276,173.586354,1.739362,194.258894,26.726830,4.450924,0.000000,5.961752,0.518648,450.886076,3705.303637,0.577514,173.586354
1.950000,387.393412,173.853537,1.783844,194.313571,26.718265,4.448205,0.000000,5.997538,0.517928,450.632911,3718.154142,0.577671,173.853537
1.960000,389.337134,174.120579,1.828276,194.372232,26.704161,4.443224,0.000000,6.033070,0.517171,450.379747,3730.940554,0.577838,174.120579
1.970000,391.281481,174.387423,1.872639,194.434659,26.684461,4.436266,0.000000,6.068376,0.516379,450.126582,3743.662875,0.578014,174.387423
1.980000,393.226487,174.654014,1.916914,194.500634,26.659112,4.427597,0.000000,6.103486,0.515553,449.873418,3756.321102,0.578197,174.654014
1.990000,395.172187,174.920295,1.961089,194.569935,26.628070,4.417465,0.000000,6.138428,0.514694,449.620253,3768.915238,0.578388,174.920295
2.000000,397.118610,175.186208,2.005150,194.642344,26.591292,4.406105,0.000000,6.173232,0.513803,449.367089,3781.445281,0.578586,175.186208
2.010000,399.065787,175.451695,2.049088,194.717638,26.548741,4.393739,0.000000,6.207926,0.512882,449.113924,3793.911232,0.578789,175.451695
2.020000,401.013743,175.716699,2.092893,194.795595,26.500376,4.380578,0.000000,6.242539,0.511931,448.860759,3806.313091,0.578998,175.716699
2.030000,402.962502,175.981161,2.136562,194.875990,26.446161,4.366824,0.000000,6.277101,0.510952,448.607595,3818.650857,0.579212,175.981161
2.040000,404.912088,176.245021,2.180088,194.958598,26.386057,4.352673,0.000000,6.311640,0.509945,448.354430,3830.924531,0.579430,176.245021
2.050000,406.862520,176.508221,2.223471,195.043190,26.320024,4.338316,0.000000,6.346186,0.508912,448.101266,3843.134113,0.579652,176.508221
2.060000,408.813816,176.770702,2.266711,195.129534,26.248020,4.323937,0.000000,6.380767,0.507854,447.848101,3855.279603,0.579876,176.770702
2.070000,410.765990,177.032402,2.309808,195.217394,26.170002,4.309720,0.000000,6.415413,0.506772,447.594937,3867.361000,0.580103,177.032402
2.080000,412.719055,177.293261,2.352767,195.306533,26.085924,4.295847,0.000000,6.450154,0.505667,447.341772,3879.378305,0.580331,177.293261
2.090000,414.673022,177.553218,2.395592,195.396705,25.995736,4.282499,0.000000,6.485018,0.504540,447.088608,3891.331517,0.580560,177.553218
2.100000,416.627899,177.812212,2.438290,195.487662,25.899389,4.269861,0.000000,6.520038,0.503394,446.835443,3903.220638,0.580789,177.812212
2.110000,418.583690,178.070180,2.480871,195.579148,25.796829,4.258117,0.000000,6.555241,0.502227,446.582278,3915.045666,0.581017,178.070180
2.120000,420.540399,178.327060,2.523346,195.670902,25.688000,4.247459,0.000000,6.590659,0.501043,446.329114,3926.806602,0.581244,178.327060
2.130000,422.498026,178.582789,2.565727,195.762653,25.572845,4.238082,0.000000,6.626323,0.499841,446.075949,3938.503445,0.581469,178.582789
2.140000,424.456567,178.837302,2.608029,195.854126,25.451306,4.230190,0.000000,6.662263,0.498624,445.822785,3950.136196,0.581691,178.837302
2.150000,426.416017,179.090535,2.650269,195.945033,25.323324,4.223997,0.000000,6.698511,0.497392,445.569620,3961.704855,0.581909,179.090535
2.160000,428.376368,179.342424,2.692466,196.035077,25.188841,4.219726,0.000000,6.735098,0.496146,445.316456,3973.209422,0.582123,179.342424
2.170000,430.337608,179.592902,2.734642,196.123953,25.047801,4.217615,0.000000,6.772058,0.494888,445.063291,3984.649896,0.582331,179.592902
2.180000,432.299721,179.841903,2.776821,196.211342,24.900150,4.217917,0.000000,6.809421,0.493619,444.810127,3996.026278,0.582533,179.841903
2.190000,434.262690,180.089362,2.819030,196.296913,24.745840,4.220902,0.000000,6.847222,0.492339,444.556962,4007.338568,0.582728,180.089362
2.200000,436.226493,180.335210,2.861299,196.380323,24.584833,4.226862,0.000000,6.885494,0.491051,444.303797,4018.586765,0.582914,180.335210
2.210000,438.191105,180.579381,2.903660,196.461214,24.417099,4.236115,0.000000,6.924270,0.489754,444.050633,4029.770870,0.583092,180.579381
2.220000,440.156498,180.821807,2.946150,196.539213,24.242625,4.249003,0.000000,6.963585,0.488451,443.797468,4040.890883,0.583259,180.821807
2.230000,442.122637,181.062421,2.988809,196.613932,24.061418,4.265904,0.000000,7.003475,0.487142,443.544304,4051.946803,0.583415,181.062421
2.240000,444.089487,181.301156,3.031681,196.684966,23.873514,4.287231,0.000000,7.043974,0.485829,443.291139,4062.938632,0.583558,181.301156
2.250000,446.057005,181.537946,3.074816,196.751890,23.678981,4.313439,0.000000,7.085120,0.484512,443.037975,4073.866368,0.583689,181.537946
2.260000,448.025148,181.772726,3.118266,196.814264,23.477936,4.345034,0.000000,7.126948,0.483193,442.784810,4084.730011,0.583804,181.772726
2.270000,449.993864,182.005431,3.162092,196.871625,23.270557,4.382575,0.000000,7.169497,0.481872,442.531646,4095.529563,0.583904,182.005431
2.280000,451.963099,182.236002,3.206359,196.923492,23.057096,4.426684,0.000000,7.212804,0.480552,442.278481,4106.265022,0.583986,182.236002
2.290000,453.932793,182.464381,3.251139,196.969359,22.837911,4.478055,0.000000,7.256909,0.479232,442.025316,4116.936388,0.584051,182.464381
2.300000,455.902880,182.690516,3.296514,197.008699,22.613488,4.537462,0.000000,7.301850,0.477914,441.772152,4127.543663,0.584095,182.690516
2.310000,457.873289,182.914361,3.342571,197.040960,22.384488,4.605762,0.000000,7.347669,0.476599,441.518987,4138.086845,0.584119,182.914361
2.320000,459.843945,183.135879,3.389411,197.065563,22.151792,4.683911,0.000000,7.394405,0.475288,441.265823,4148.565935,0.584121,183.135879
2.330000,461.814764,183.355045,3.437140,197.081902,21.916576,4.772954,0.000000,7.442102,0.473983,441.012658,4158.980933,0.584100,183.355045
2.340000,463.785657,183.571849,3.485880,197.089337,21.680393,4.874027,0.000000,7.490802,0.472683,440.759494,4169.331838,0.584054,183.571849
2.350000,465.756529,183.786302,3.535764,197.087196,21.445295,4.988330,0.000000,7.540548,0.471390,440.506329,4179.618651,0.583982,183.786302
2.360000,467.727277,183.998441,3.586934,197.074765,21.213973,5.117079,0.000000,7.591384,0.470105,440.253165,4189.841372,0.583884,183.998441
2.370000,469.697790,184.208341,3.639549,197.051284,20.989935,5.261409,0.000000,7.643356,0.468830,440.000000,4200.000000,0.583757,184.208341
2.380000,471.667949,184.416118,3.693771,197.015940,20.777705,5.422215,0.000000,7.696510,0.467564,439.746835,4210.094536,0.583602,184.416118
2.390000,473.637628,184.621948,3.749770,196.967858,20.583014,5.599881,0.000000,7.750892,0.466309,439.493671,4220.124980,0.583417,184.621948
2.400000,475.606689,184.826077,3.807708,196.906097,20.412912,5.793889,0.000000,7.806550,0.465066,439.240506,4230.091332,0.583202,184.826077
2.410000,477.574985,185.028834,3.867731,196.829651,20.275689,6.002304,0.000000,7.863533,0.463835,438.987342,4239.993591,0.582957,185.028834
2.420000,479.542360,185.230638,3.929944,196.737467,20.180432,6.221227,0.000000,7.921890,0.462618,438.734177,4249.831758,0.582679,185.230638
2.430000,481.508645,185.431999,3.994388,196.628474,20.136098,6.444439,0.000000,7.981671,0.461415,438.481013,4259.605832,0.582369,185.431999
2.440000,483.473683,185.633501,4.061025,196.503798,20.150167,6.663651,0.000000,8.042908,0.460228,438.227848,4269.315815,0.582031,185.633501
2.450000,485.437356,185.835742,4.129723,196.367309,20.224101,6.869877,0.000000,8.105601,0.459056,437.974684,4278.961705,0.581676,185.835742
2.460000,487.399551,186.039285,4.200270,196.219522,20.354359,7.054655,0.000000,8.169749,0.457902,437.721519,4288.543503,0.581303,186.039285
2.470000,489.360163,186.244631,4.272383,196.061205,20.534562,7.211356,0.000000,8.235351,0.456765,437.468354,4298.061208,0.580913,186.244631
2.480000,491.319095,186.452198,4.345742,195.893223,20.756746,7.335817,0.000000,8.302405,0.455646,437.215190,4307.514821,0.580505,186.452198
2.490000,493.276260,186.662325,4.420004,195.716425,21.012631,7.426247,0.000000,8.370910,0.454546,436.962025,4316.904342,0.580079,186.662325
2.500000,495.231575,186.875270,4.494831,195.531571,21.294508,7.482700,0.000000,8.440865,0.453466,436.708861,4326.229771,0.579635,186.875270
2.510000,497.184968,187.091227,4.569895,195.339318,21.595671,7.506417,0.000000,8.512268,0.452406,436.455696,4335.491107,0.579173,187.091227
2.520000,499.136371,187.310332,4.644888,195.140234,21.910522,7.499285,0.000000,8.585117,0.451368,436.202532,4344.688351,0.578694,187.310332
2.530000,501.085719,187.532677,4.719523,194.934821,22.234472,7.463447,0.000000,8.659411,0.450351,435.949367,4353.821503,0.578198,187.532677
2.540000,503.032955,187.758314,4.793533,194.723549,22.563790,7.401064,0.000000,8.735147,0.449356,435.696203,4362.890562,0.577685,187.758314
2.550000,504.978023,187.987269,4.866675,194.506876,22.895432,7.314184,0.000000,8.812324,0.448385,435.443038,4371.895530,0.577157,187.987269
2.560000,506.920876,188.219538,4.938722,194.285277,23.226886,7.204683,0.000000,8.890938,0.447437,435.189873,4380.836404,0.576614,188.219538
2.570000,508.861469,188.455098,5.009464,194.059258,23.556057,7.074240,0.000000,8.970988,0.446513,434.936709,4389.713187,0.576057,188.455098
2.580000,510.799762,188.693910,5.078708,193.829374,23.881160,6.924340,0.000000,9.052471,0.445614,434.683544,4398.525877,0.575488,188.693910
2.590000,512.735725,188.935916,5.146271,193.596253,24.200646,6.756286,0.000000,9.135383,0.444740,434.430380,4407.274475,0.574907,188.935916
2.600000,514.669331,189.181047,5.211983,193.360621,24.513118,6.571208,0.000000,9.219720,0.443891,434.177215,4415.958981,0.574316,189.181047
2.610000,516.600565,189.429220,5.275684,193.123365,24.817246,6.370087,0.000000,9.305478,0.443069,433.924051,4424.579394,0.573719,189.429220
2.620000,518.529422,189.680336,5.337221,192.885686,25.111593,6.153773,0.000000,9.392430,0.442273,433.670886,4433.135715,0.573118,189.680336
2.630000,520.455918,189.934277,5.396452,192.649612,25.394122,5.923076,0.000000,9.480564,0.441504,433.417722,4441.627944,0.572517,189.934277
2.640000,522.380129,190.190869,5.453242,192.421093,25.659186,5.679010,0.000000,9.569851,0.440763,433.164557,4450.056081,0.571933,190.190869
2.650000,524.304165,190.446002,5.507768,192.403671,25.513287,5.452627,0.000000,9.658930,0.440050,432.911392,4458.420125,0.571808,190.446002
2.660000,526.226948,190.695787,5.560356,192.278290,24.978533,5.258803,0.000000,9.746633,0.439364,432.658228,4466.720077,0.571223,190.695787
2.670000,528.148426,190.940074,5.611167,192.147738,24.428729,5.081040,0.000000,9.832939,0.438708,432.405063,4474.955937,0.570623,190.940074
2.680000,530.068588,191.178782,5.660362,192.016201,23.870739,4.919510,0.000000,9.917841,0.438080,432.151899,4483.127704,0.570023,191.178782
2.690000,531.987439,191.411852,5.708109,191.885127,23.307035,4.774683,0.000000,10.001337,0.437482,431.898734,4491.235379,0.569429,191.411852
2.700000,533.904993,191.639245,5.754581,191.755360,22.739322,4.647205,0.000000,10.083428,0.436913,431.645570,4499.278962,0.568843,191.639245
2.710000,535.821267,191.860937,5.799960,191.627495,22.169165,4.537887,0.000000,10.164156,0.436375,431.392405,4507.258452,0.568267,191.860937
2.720000,537.736287,192.076919,5.844437,191.501982,21.598196,4.447712,0.000000,10.243564,0.435866,431.139241,4515.173850,0.567704,192.076919
2.730000,539.650079,192.287201,5.888215,191.379156,21.028236,4.377854,0.000000,10.321691,0.435388,430.886076,4523.025156,0.567156,192.287201
2.740000,541.562671,192.491815,5.931512,191.259253,20.461394,4.329687,0.000000,10.398579,0.434940,430.632911,4530.812370,0.566623,192.491815
2.750000,543.474095,192.690817,5.974560,191.142405,19.900191,4.304795,0.000000,10.474270,0.434524,430.379747,4538.535491,0.566107,192.690817
2.760000,545.384382,192.884294,6.017610,191.028643,19.347705,4.304960,0.000000,10.548778,0.434138,430.126582,4546.194520,0.565609,192.884294
2.770000,547.293561,193.072372,6.060931,190.917878,18.807753,4.332108,0.000000,10.622104,0.433784,429.873418,4553.789457,0.565130,193.072372
2.780000,549.201660,193.255223,6.104813,190.809899,18.285116,4.388180,0.000000,10.694248,0.433462,429.620253,4561.320301,0.564669,193.255223
2.790000,551.108703,193.433081,6.149561,190.704358,17.785773,4.474882,0.000000,10.765213,0.433171,429.367089,4568.787053,0.564228,193.433081
2.800000,553.014711,193.606251,6.195494,190.600776,17.317088,4.593232,0.000000,10.834999,0.432911,429.113924,4576.189713,0.563808,193.606251
2.810000,554.919697,193.775129,6.242922,190.498575,16.887777,4.742858,0.000000,10.903608,0.432684,428.860759,4583.528281,0.563407,193.775129
2.820000,556.823668,193.940203,6.292133,190.397152,16.507408,4.921102,0.000000,10.971039,0.432489,428.607595,4590.802756,0.563026,193.940203
2.830000,558.726628,194.102055,6.343355,190.296014,16.185158,5.122208,0.000000,11.037295,0.432325,428.354430,4598.013139,0.562665,194.102055
2.840000,560.628578,194.261334,6.396728,190.194944,15.927886,5.337229,0.000000,11.102375,0.432194,428.101266,4605.159430,0.562323,194.261334
2.850000,562.529529,194.418716,6.452282,190.095087,15.738197,5.555414,0.000000,11.166289,0.432096,427.848101,4612.241628,0.562003,194.418716
2.860000,564.429550,194.574821,6.509957,190.002161,15.610491,5.767500,0.000000,11.229091,0.432029,427.594937,4619.259734,0.561719,194.574821
2.870000,566.328721,194.730158,6.569612,189.917021,15.533726,5.965560,0.000000,11.290833,0.431995,427.341772,4626.213748,0.561469,194.730158
2.880000,568.227128,194.885118,6.631062,189.840696,15.496041,6.144946,0.000000,11.351567,0.431994,427.088608,4633.103669,0.561254,194.885118
2.890000,570.124869,195.039984,6.694101,189.774129,15.486550,6.303905,0.000000,11.411343,0.432025,426.835443,4639.929498,0.561073,195.039984
2.900000,572.022049,195.194946,6.758528,189.718030,15.496218,6.442682,0.000000,11.470209,0.432088,426.582278,4646.691235,0.560925,195.194946
2.910000,573.918778,195.350126,6.824154,189.672846,15.518009,6.562643,0.000000,11.528213,0.432184,426.329114,4653.388880,0.560811,195.350126
2.920000,575.815165,195.505593,6.890811,189.638786,15.546645,6.665650,0.000000,11.585404,0.432312,426.075949,4660.022432,0.560730,195.505593
2.930000,577.711324,195.661375,6.958348,189.615859,15.578257,6.753681,0.000000,11.641826,0.432472,425.822785,4666.591892,0.560680,195.661375
2.940000,579.607363,195.817475,7.026634,189.603925,15.610036,6.828631,0.000000,11.697527,0.432665,425.569620,4673.097260,0.560662,195.817475
2.950000,581.503391,195.973875,7.095556,189.602728,15.639955,6.892225,0.000000,11.752551,0.432890,425.316456,4679.538535,0.560673,195.973875
2.960000,583.399510,196.130541,7.165016,189.611929,15.666557,6.945988,0.000000,11.806942,0.433148,425.063291,4685.915719,0.560713,196.130541
2.970000,585.295821,196.287429,7.234929,189.631128,15.688791,6.991253,0.000000,11.860745,0.433437,424.810127,4692.228809,0.560781,196.287429
2.980000,587.192420,196.444488,7.305220,189.659881,15.705901,7.029171,0.000000,11.914003,0.433759,424.556962,4698.477808,0.560874,196.444488
2.990000,589.089397,196.601661,7.375828,189.697713,15.717344,7.060741,0.000000,11.966760,0.434112,424.303797,4704.662714,0.560993,196.601661
3.000000,590.986838,196.758888,7.446696,189.744124,15.722727,7.086825,0.000000,12.019058,0.434497,424.050633,4710.783528,0.561134,196.758888
3.010000,592.884824,196.916106,7.517778,189.798601,15.721767,7.108171,0.000000,12.070939,0.434914,423.797468,4716.840250,0.561297,196.916106
3.020000,594.783430,197.073248,7.589032,189.860617,15.714257,7.125430,0.000000,12.122447,0.435363,423.544304,4722.832879,0.561480,197.073248
3.030000,596.682727,197.230249,7.660424,189.929639,15.700046,7.139176,0.000000,12.173623,0.435843,423.291139,4728.761416,0.561681,197.230249
3.040000,598.582778,197.387039,7.731923,190.005126,15.679020,7.149914,0.000000,12.224509,0.436355,423.037975,4734.625861,0.561900,197.387039
3.050000,600.483643,197.543550,7.803504,190.086534,15.651089,7.158094,0.000000,12.275147,0.436897,422.784810,4740.426214,0.562134,197.543550
3.060000,602.385377,197.699712,7.875145,190.173314,15.616182,7.164120,0.000000,12.325578,0.437471,422.531646,4746.162474,0.562382,197.699712
3.070000,604.288026,197.855454,7.946829,190.264914,15.574233,7.168359,0.000000,12.375845,0.438075,422.278481,4751.834642,0.562642,197.855454
3.080000,606.191634,198.010706,8.018540,190.360779,15.525184,7.171150,0.000000,12.425989,0.438710,422.025316,4757.442718,0.562912,198.010706
3.090000,608.096237,198.165396,8.090268,190.460351,15.468975,7.172807,0.000000,12.476053,0.439375,421.772152,4762.986701,0.563192,198.165396
3.100000,610.001868,198.319451,8.162004,190.563068,15.405543,7.173628,0.000000,12.526076,0.440071,421.518987,4768.466592,0.563480,198.319451
3.110000,611.908551,198.472799,8.233743,190.668361,15.334824,7.173896,0.000000,12.576103,0.440796,421.265823,4773.882391,0.563773,198.472799
3.120000,613.816308,198.625367,8.305482,190.775658,15.256745,7.173889,0.000000,12.626175,0.441551,421.012658,4779.234097,0.564070,198.625367
3.130000,615.725152,198.777079,8.377221,190.884382,15.171228,7.173881,0.000000,12.676334,0.442336,420.759494,4784.521711,0.564370,198.777079
3.140000,617.635091,198.927861,8.448963,190.993945,15.078191,7.174149,0.000000,12.726623,0.443149,420.506329,4789.745233,0.564671,198.927861
3.150000,619.546129,199.077636,8.520712,191.103754,14.977542,7.174975,0.000000,12.777085,0.443992,420.253165,4794.904663,0.564971,199.077636
3.160000,621.458261,199.226328,8.592479,191.213207,14.869188,7.176651,0.000000,12.827763,0.444863,420.000000,4800.000000,0.565268,199.226328
3.170000,623.371478,199.373859,8.664274,191.321688,14.753032,7.179486,0.000000,12.878702,0.445762,419.746835,4805.031245,0.565562,199.373859
3.180000,625.285763,199.520148,8.736112,191.428576,14.628973,7.183809,0.000000,12.929944,0.446690,419.493671,4809.998398,0.565849,199.520148
3.190000,627.201096,199.665118,8.808011,191.533232,14.496917,7.189974,0.000000,12.981534,0.447645,419.240506,4814.901458,0.566128,199.665118
3.200000,629.117446,199.808685,8.879995,191.635007,14.356772,7.198369,0.000000,13.033518,0.448627,418.987342,4819.740426,0.566398,199.808685
3.210000,631.034778,199.950770,8.952089,191.733238,14.208461,7.209423,0.000000,13.085940,0.449636,418.734177,4824.515302,0.566656,199.950770
3.220000,632.953051,200.091289,9.024326,191.827246,14.051926,7.223612,0.000000,13.138847,0.450672,418.481013,4829.226086,0.566900,200.091289
3.230000,634.872214,200.230161,9.096740,191.916338,13.887136,7.241468,0.000000,13.192285,0.451735,418.227848,4833.872777,0.567129,200.230161
3.240000,636.792212,200.367302,9.169376,191.999802,13.714105,7.263595,0.000000,13.246301,0.452823,417.974684,4838.455376,0.567341,200.367302
3.250000,638.712981,200.502631,9.242283,192.076915,13.532908,7.290676,0.000000,13.300943,0.453937,417.721519,4842.973882,0.567534,200.502631
3.260000,640.634451,200.636068,9.315518,192.146932,13.343703,7.323493,0.000000,13.356259,0.455075,417.468354,4847.428297,0.567705,200.636068
3.270000,642.556542,200.767535,9.389147,192.209097,13.146765,7.362939,0.000000,13.412298,0.456239,417.215190,4851.818619,0.567853,200.767535
3.280000,644.479168,200.896961,9.463248,192.262636,12.942532,7.410043,0.000000,13.469110,0.457427,416.962025,4856.144849,0.567975,200.896961
3.290000,646.402235,201.024277,9.537907,192.306762,12.731660,7.465983,0.000000,13.526745,0.458639,416.708861,4860.406986,0.568071,201.024277
3.300000,648.325642,201.149428,9.613229,192.340676,12.515114,7.532114,0.000000,13.585255,0.459874,416.455696,4864.605031,0.568137,201.149428
3.310000,650.249278,201.272371,9.689328,192.363569,12.294279,7.609973,0.000000,13.644692,0.461132,416.202532,4868.738984,0.568172,201.272371
3.320000,652.173024,201.393082,9.766341,192.374626,12.071119,7.701290,0.000000,13.705108,0.462413,415.949367,4872.808845,0.568175,201.393082
3.330000,654.096754,201.511566,9.844421,192.373031,11.848392,7.807953,0.000000,13.766558,0.463716,415.696203,4876.814613,0.568143,201.511566
3.340000,656.020334,201.627866,9.923740,192.357969,11.629936,7.931922,0.000000,13.829095,0.465041,415.443038,4880.756289,0.568075,201.627866
3.350000,657.943621,201.742076,10.004490,192.328635,11.421018,8.075037,0.000000,13.892774,0.466387,415.189873,4884.633873,0.567970,201.742076
3.360000,659.866463,201.854363,10.086877,192.284239,11.228713,8.238649,0.000000,13.957653,0.467754,414.936709,4888.447364,0.567828,201.854363
3.370000,661.788703,201.964985,10.171107,192.224018,11.062203,8.422989,0.000000,14.023787,0.469141,414.683544,4892.196763,0.567647,201.964985
3.380000,663.710175,202.074312,10.257369,192.147237,10.932719,8.626267,0.000000,14.091235,0.470547,414.430380,4895.882070,0.567426,202.074312
3.390000,665.630707,202.182840,10.345806,192.053203,10.852773,8.843666,0.000000,14.160054,0.471973,414.177215,4899.503285,0.567167,202.182840
3.400000,667.550120,202.291184,10.436474,191.941242,10.834368,9.066750,0.000000,14.230305,0.473418,413.924051,4903.060407,0.566866,202.291184
3.410000,669.468265,202.400043,10.529316,191.814526,10.885959,9.284289,0.000000,14.302014,0.474881,413.670886,4906.553437,0.566534,202.400043
3.420000,671.385034,202.510105,10.624161,191.676859,11.006129,9.484437,0.000000,14.375182,0.476361,413.417722,4909.982375,0.566179,202.510105
3.430000,673.300324,202.621980,10.720733,191.529024,11.187574,9.657171,0.000000,14.449806,0.477859,413.164557,4913.347220,0.565802,202.621980
3.440000,675.214042,202.736181,10.818692,191.371842,11.420098,9.795957,0.000000,14.525887,0.479373,412.911392,4916.647973,0.565402,202.736181
3.450000,677.126103,202.853110,10.917670,191.206053,11.692831,9.897802,0.000000,14.603422,0.480904,412.658228,4919.884634,0.564980,202.853110
3.460000,679.036426,202.973067,11.017294,191.032280,11.995747,9.962401,0.000000,14.682411,0.482450,412.405063,4923.057202,0.564535,202.973067
3.470000,680.944936,203.096270,11.117205,190.851046,12.320329,9.991090,0.000000,14.762851,0.484011,412.151899,4926.165679,0.564069,203.096270
3.480000,682.851564,203.222867,11.217065,190.662815,12.659643,9.986011,0.000000,14.844740,0.485587,411.898734,4929.210062,0.563582,203.222867
3.490000,684.756245,203.352948,11.316561,190.468038,13.008140,9.949569,0.000000,14.928078,0.487177,411.645570,4932.190354,0.563074,203.352948
3.500000,686.658917,203.486562,11.415402,190.267186,13.361383,9.884137,0.000000,15.012861,0.488780,411.392405,4935.106553,0.562548,203.486562
3.510000,688.559524,203.623720,11.513321,190.060774,13.715789,9.791910,0.000000,15.099088,0.490397,411.139241,4937.958660,0.562003,203.623720
3.520000,690.458018,203.764404,11.610070,189.849384,14.068418,9.674851,0.000000,15.186755,0.492026,410.886076,4940.746675,0.561442,203.764404
3.530000,692.354355,203.908572,11.705417,189.633682,14.416807,9.534684,0.000000,15.275860,0.493666,410.632911,4943.470598,0.560866,203.908572
3.540000,694.248499,204.056161,11.799146,189.414439,14.758844,9.372902,0.000000,15.366399,0.495319,410.379747,4946.130428,0.560277,204.056161
3.550000,696.140425,204.207087,11.891054,189.192563,15.092643,9.190790,0.000000,15.458368,0.496982,410.126582,4948.726166,0.559678,204.207087
3.560000,698.030117,204.361251,11.980948,188.969175,15.416418,8.989448,0.000000,15.551763,0.498655,409.873418,4951.257811,0.559072,204.361251
3.570000,699.917575,204.518533,12.068646,188.745814,15.728212,8.769819,0.000000,15.646353,0.500339,409.620253,4953.725365,0.558464,204.518533
3.580000,701.802828,204.678783,12.153974,188.525278,16.025012,8.532818,0.000000,15.742124,0.502031,409.367089,4956.128826,0.557859,204.678783
3.590000,703.686016,204.841732,12.236774,188.318866,16.294902,8.279960,0.000000,15.839026,0.503733,409.113924,4958.468194,0.557290,204.841732
3.600000,705.567925,204.999743,12.317361,188.190884,15.801054,8.058679,0.000000,15.934638,0.505443,408.860759,4960.743471,0.556764,204.999743
3.610000,707.448334,205.152381,12.395928,188.040899,15.263776,7.856742,0.000000,16.028881,0.507161,408.607595,4962.954655,0.556170,205.152381
3.620000,709.327218,205.299516,12.472673,187.888408,14.713528,7.674520,0.000000,16.121795,0.508886,408.354430,4965.101747,0.555573,205.299516
3.630000,711.204581,205.441064,12.547802,187.736288,14.154794,7.512858,0.000000,16.213430,0.510619,408.101266,4967.184746,0.554982,205.441064
3.640000,713.080440,205.576965,12.621530,187.585899,13.590104,7.372815,0.000000,16.303837,0.512358,407.848101,4969.203653,0.554403,205.576965
3.650000,714.954822,205.707182,12.694087,187.438147,13.021695,7.255657,0.000000,16.393053,0.514102,407.594937,4971.158468,0.553838,205.707182
3.660000,716.827759,205.831701,12.765715,187.293717,12.451930,7.162851,0.000000,16.481078,0.515853,407.341772,4973.049191,0.553290,205.831701
3.670000,718.699290,205.950536,12.836676,187.153132,11.883494,7.096054,0.000000,16.567912,0.517608,407.088608,4974.875821,0.552762,205.950536
3.680000,720.569458,206.063732,12.907247,187.016787,11.319557,7.057100,0.000000,16.653557,0.519368,406.835443,4976.638359,0.552255,206.063732
3.690000,722.438308,206.171371,12.977726,186.884953,10.763937,7.047949,0.000000,16.738014,0.521133,406.582278,4978.336805,0.551771,206.171371
3.700000,724.305885,206.273584,13.048432,186.757785,10.221300,7.070582,0.000000,16.821283,0.522901,406.329114,4979.971158,0.551311,206.273584
3.710000,726.172239,206.370558,13.119700,186.635332,9.697353,7.126800,0.000000,16.903365,0.524673,406.075949,4981.541420,0.550876,206.370558
3.720000,728.037414,206.462548,13.191879,186.517552,9.199021,7.217865,0.000000,16.984261,0.526447,405.822785,4983.047589,0.550466,206.462548
3.730000,729.901458,206.549892,13.265318,186.404343,8.734466,7.343950,0.000000,17.063973,0.528224,405.569620,4984.489665,0.550083,206.549892
3.740000,731.764414,206.633020,13.340352,186.295598,8.312790,7.503397,0.000000,17.142500,0.530003,405.316456,4985.867649,0.549726,206.633020
3.750000,733.626326,206.712452,13.417272,186.191283,7.943196,7.691977,0.000000,17.219844,0.531784,405.063291,4987.181541,0.549395,206.712452
3.760000,735.487242,206.788788,13.496297,186.091509,7.633548,7.902524,0.000000,17.296005,0.533566,404.810127,4988.431341,0.549090,206.788788
3.770000,737.347207,206.862675,13.577552,185.996588,7.388677,8.125440,0.000000,17.370985,0.535349,404.556962,4989.617049,0.548810,206.862675
3.780000,739.206319,206.934757,13.661037,185.911131,7.208282,8.348537,0.000000,17.444816,0.537132,404.303797,4990.738664,0.548568,206.934757
3.790000,741.064707,207.005593,13.746650,185.838858,7.083582,8.561342,0.000000,17.517561,0.538916,404.050633,4991.796187,0.548370,207.005593
3.800000,742.922508,207.075627,13.834227,185.780044,7.003396,8.757664,0.000000,17.589282,0.540699,403.797468,4992.789617,0.548215,207.075627
3.810000,744.779858,207.145194,13.923570,185.734981,6.956634,8.934260,0.000000,17.660037,0.542482,403.544304,4993.718955,0.548103,207.145194
3.820000,746.636896,207.214529,14.014472,185.703845,6.933506,9.090242,0.000000,17.729884,0.544264,403.291139,4994.584201,0.548031,207.214529
3.830000,748.493762,207.283789,14.106735,185.686641,6.926004,9.226266,0.000000,17.798882,0.546044,403.037975,4995.385355,0.548000,207.283789
3.840000,750.350594,207.353068,14.200173,185.683195,6.927897,9.343836,0.000000,17.867086,0.547823,402.784810,4996.122416,0.548008,207.353068
3.850000,752.207526,207.422412,14.294621,185.693175,6.934474,9.444815,0.000000,17.934552,0.549600,402.531646,4996.795385,0.548053,207.422412
3.860000,754.064687,207.491835,14.389933,185.716120,6.942244,9.531136,0.000000,18.001336,0.551374,402.278481,4997.404262,0.548135,207.491835
3.870000,755.922202,207.561321,14.485979,185.751470,6.948638,9.604645,0.000000,18.067492,0.553145,402.025316,4997.949047,0.548251,207.561321
3.880000,757.780188,207.630839,14.582649,185.798584,6.951775,9.667032,0.000000,18.133074,0.554914,401.772152,4998.429739,0.548400,207.630839
3.890000,759.638756,207.700342,14.679847,185.856765,6.950282,9.719808,0.000000,18.198135,0.556679,401.518987,4998.846339,0.548580,207.700342
3.900000,761.498008,207.769773,14.777491,185.925269,6.943148,9.764309,0.000000,18.262729,0.558440,401.265823,4999.198846,0.548787,207.769773
3.910000,763.358041,207.839070,14.875508,186.003318,6.929631,9.801712,0.000000,18.326910,0.560197,401.012658,4999.487262,0.549022,207.839070
3.920000,765.218942,207.908161,14.973838,186.090110,6.909177,9.833052,0.000000,18.390729,0.561950,400.759494,4999.711585,0.549280,207.908161
3.930000,767.080791,207.976975,15.072431,186.184821,6.881371,9.859246,0.000000,18.454240,0.563698,400.506329,4999.871815,0.549560,207.976975
3.940000,768.943657,208.045434,15.171242,186.286609,6.845894,9.881111,0.000000,18.517495,0.565441,400.253165,4999.967954,0.549859,208.045434
3.950000,770.807603,208.113459,15.270236,186.394623,6.802495,9.899381,0.000000,18.580547,0.567179,400.000000,5000.000000,0.550175,208.113459
3.960000,772.672683,208.180969,15.369383,186.507997,6.750972,9.914727,0.000000,18.643449,0.568911,399.746835,4999.967954,0.550505,208.180969
3.970000,774.538942,208.247880,15.468661,186.625856,6.691154,9.927770,0.000000,18.706253,0.570638,399.493671,4999.871815,0.550848,208.247880
3.980000,776.406415,208.314109,15.568051,186.747314,6.622892,9.939096,0.000000,18.769012,0.572358,399.240506,4999.711585,0.551200,208.314109
3.990000,778.275129,208.379570,15.667544,186.871477,6.546054,9.949264,0.000000,18.831779,0.574072,398.987342,4999.487262,0.551559,208.379570
4.000000,780.145104,208.444175,15.767132,186.997441,6.460516,9.958824,0.000000,18.894608,0.575780,398.734177,4999.198846,0.551923,208.444175
4.010000,782.016347,208.507836,15.866816,187.124291,6.366167,9.968325,0.000000,18.957553,0.577481,398.481013,4998.846339,0.552288,208.507836
4.020000,783.888858,208.570465,15.966599,187.251105,6.262903,9.978326,0.000000,19.020667,0.579175,398.227848,4998.429739,0.552652,208.570465
4.030000,785.762627,208.631972,16.066493,187.376947,6.150632,9.989409,0.000000,19.084005,0.580861,397.974684,4997.949047,0.553013,208.631972
4.040000,787.637636,208.692265,16.166515,187.500871,6.029285,10.002188,0.000000,19.147622,0.582540,397.721519,4997.404262,0.553369,208.692265
4.050000,789.513855,208.751253,16.266688,187.621922,5.898813,10.017323,0.000000,19.211573,0.584211,397.468354,4996.795385,0.553715,208.751253
4.060000,791.391247,208.808845,16.367043,187.739132,5.759210,10.035533,0.000000,19.275915,0.585875,397.215190,4996.122416,0.554050,208.808845
4.070000,793.269762,208.864950,16.467620,187.851522,5.610520,10.057612,0.000000,19.340703,0.587530,396.962025,4995.385355,0.554371,208.864950
4.080000,795.149343,208.919479,16.568464,187.958103,5.452864,10.084439,0.000000,19.405994,0.589177,396.708861,4994.584201,0.554675,208.919479
4.090000,797.029922,208.972343,16.669634,188.057878,5.286466,10.117004,0.000000,19.471848,0.590816,396.455696,4993.718955,0.554960,208.972343
4.100000,798.911420,209.023460,16.771198,188.149842,5.111692,10.156415,0.000000,19.538321,0.592446,396.202532,4992.789617,0.555223,209.023460
4.110000,800.793750,209.072751,16.873237,188.232985,4.929102,10.203927,0.000000,19.605473,0.594067,395.949367,4991.796187,0.555461,209.072751
4.120000,802.676813,209.120146,16.975847,188.306301,4.739519,10.260952,0.000000,19.673364,0.595679,395.696203,4990.738664,0.555672,209.120146
4.130000,804.560501,209.165588,17.079138,188.368784,4.544119,10.329072,0.000000,19.742055,0.597282,395.443038,4989.617049,0.555852,209.165588
4.140000,806.444695,209.209033,17.183238,188.419445,4.344552,10.410043,0.000000,19.811607,0.598876,395.189873,4988.431341,0.556001,209.209033
4.150000,808.329268,209.250464,17.288296,188.457317,4.143104,10.505775,0.000000,19.882083,0.600461,394.936709,4987.181541,0.556115,209.250464
4.160000,810.214083,209.289893,17.394478,188.481466,3.942890,10.618270,0.000000,19.953545,0.602036,394.683544,4985.867649,0.556192,209.289893
4.170000,812.098993,209.327374,17.501973,188.491012,3.748100,10.749502,0.000000,20.026057,0.603602,394.430380,4984.489665,0.556231,209.327374
4.180000,813.983844,209.363017,17.610985,188.485139,3.564257,10.901187,0.000000,20.099685,0.605158,394.177215,4983.047589,0.556229,209.363017
4.190000,815.868476,209.397001,17.721729,188.463117,3.398445,11.074411,0.000000,20.174494,0.606705,393.924051,4981.541420,0.556185,209.397001
4.200000,817.752719,209.429595,17.834420,188.424311,3.259389,11.269086,0.000000,20.250551,0.608241,393.670886,4979.971158,0.556098,209.429595
4.210000,819.636401,209.461167,17.949253,188.368178,3.157217,11.483271,0.000000,20.327922,0.609768,393.417722,4978.336805,0.555966,209.461167
4.220000,821.519343,209.492194,18.066378,188.294238,3.102714,11.712540,0.000000,20.406676,0.611286,393.164557,4976.638359,0.555787,209.492194
4.230000,823.401363,209.523254,18.185876,188.202003,3.106002,11.949707,0.000000,20.486881,0.612793,392.911392,4974.875821,0.555560,209.523254
4.240000,825.282335,209.554991,18.307689,188.097236,3.173688,12.181307,0.000000,20.568561,0.614290,392.658228,4973.049191,0.555300,209.554991
