Time(s),X(m),Y(m),Z(m),Vx(m/s),Vy(m/s),Vz(m/s),Roll(rad),Pitch(rad),Yaw(rad),Mass(kg),Thrust(N),Mach,Altitude(m)
0.000000,0.000000,100.000000,0.000000,200.000000,50.000000,0.000000,0.000000,0.200000,0.000000,500.000000,0.000000,0.606500,100.000000
0.010000,1.999820,100.499094,0.000000,199.982046,49.909401,0.000000,0.000000,0.199963,0.000000,499.746835,25.284410,0.606387,100.499094
0.020000,3.999467,100.997282,0.000000,199.964614,49.818820,0.000000,0.000000,0.199997,0.000072,499.493671,50.504727,0.606276,100.997282
0.030000,5.998944,101.494565,-0.000000,199.947709,49.728237,-0.000009,0.000000,0.200104,0.000217,499.240506,75.660952,0.606167,101.494565
0.040000,7.998257,101.990941,-0.000000,199.931335,49.637634,-0.000036,0.000000,0.200282,0.000433,498.987342,100.753084,0.606060,101.990941
0.050000,9.997412,102.486411,-0.000001,199.915495,49.546994,-0.000091,0.000000,0.200533,0.000722,498.734177,125.781125,0.605954,102.486411
0.060000,11.996414,102.980974,-0.000003,199.900194,49.456299,-0.000181,0.000000,0.200858,0.001083,498.481013,150.745073,0.605849,102.980974
0.070000,13.995268,103.474629,-0.000006,199.885435,49.365530,-0.000316,0.000000,0.201256,0.001516,498.227848,175.644929,0.605746,103.474629
0.080000,15.993981,103.967376,-0.000011,199.871223,49.274668,-0.000504,0.000000,0.201730,0.002022,497.974684,200.480692,0.605645,103.967376
0.090000,17.992556,104.459213,-0.000019,199.857561,49.183696,-0.000754,0.000000,0.202278,0.002600,497.721519,225.252363,0.605545,104.459213
0.100000,19.991001,104.950139,-0.000030,199.844453,49.092595,-0.001074,0.000000,0.202903,0.003250,497.468354,249.959942,0.605447,104.950139
0.110000,21.989320,105.440152,-0.000044,199.831904,49.001346,-0.001473,0.000000,0.203605,0.003972,497.215190,274.603429,0.605351,105.440152
0.120000,23.987519,105.929252,-0.000064,199.819916,48.909931,-0.001958,0.000000,0.204384,0.004766,496.962025,299.182823,0.605256,105.929252
0.130000,25.985604,106.417435,-0.000089,199.808495,48.818330,-0.002538,0.000000,0.205243,0.005633,496.708861,323.698125,0.605163,106.417435
0.140000,27.983580,106.904700,-0.000122,199.797644,48.726525,-0.003220,0.000000,0.206182,0.006572,496.455696,348.149335,0.605071,106.904700
0.150000,29.981454,107.391045,-0.000162,199.787367,48.634496,-0.004013,0.000000,0.207201,0.007584,496.202532,372.536452,0.604981,107.391045
0.160000,31.979231,107.876467,-0.000211,199.777669,48.542224,-0.004925,0.000000,0.208304,0.008668,495.949367,396.859478,0.604892,107.876467
0.170000,33.976916,108.360964,-0.000271,199.768553,48.449688,-0.005962,0.000000,0.209489,0.009824,495.696203,421.118411,0.604805,108.360964
0.180000,35.974516,108.844533,-0.000342,199.760023,48.356870,-0.007132,0.000000,0.210760,0.011052,495.443038,445.313251,0.604720,108.844533
0.190000,37.972037,109.327170,-0.000426,199.752084,48.263749,-0.008443,0.000000,0.212117,0.012353,495.189873,469.443999,0.604636,109.327170
0.200000,39.969485,109.808873,-0.000525,199.744740,48.170303,-0.009902,0.000000,0.213563,0.013726,494.936709,493.510655,0.604554,109.808873
0.210000,41.966865,110.289639,-0.000640,199.737995,48.076514,-0.011516,0.000000,0.215097,0.015171,494.683544,517.513219,0.604473,110.289639
0.220000,43.964183,110.769462,-0.000773,199.731853,47.982358,-0.013292,0.000000,0.216723,0.016689,494.430380,541.451690,0.604394,110.769462
0.230000,45.961446,111.248340,-0.000926,199.726319,47.887816,-0.015237,0.000000,0.218441,0.018280,494.177215,565.326070,0.604316,111.248340
0.240000,47.958660,111.726269,-0.001099,199.721397,47.792865,-0.017357,0.000000,0.220254,0.019942,493.924051,589.136356,0.604241,111.726269
0.250000,49.955831,112.203244,-0.001296,199.717091,47.697484,-0.019659,0.000000,0.222164,0.021677,493.670886,612.882551,0.604166,112.203244
0.260000,51.952965,112.679260,-0.001517,199.713407,47.601649,-0.022150,0.000000,0.224172,0.023485,493.417722,636.564653,0.604094,112.679260
0.270000,53.950069,113.154314,-0.001766,199.710347,47.505338,-0.024836,0.000000,0.226281,0.025365,493.164557,660.182663,0.604022,113.154314
0.280000,55.947148,113.628399,-0.002043,199.707917,47.408528,-0.027723,0.000000,0.228492,0.027318,492.911392,683.736581,0.603953,113.628399
0.290000,57.944209,114.101511,-0.002351,199.706122,47.311194,-0.030816,0.000000,0.230808,0.029343,492.658228,707.226406,0.603885,114.101511
0.300000,59.941259,114.573644,-0.002692,199.704965,47.213313,-0.034122,0.000000,0.233231,0.031440,492.405063,730.652139,0.603818,114.573644
0.310000,61.938303,115.044793,-0.003069,199.704452,47.114860,-0.037647,0.000000,0.235764,0.033610,492.151899,754.013780,0.603754,115.044793
0.320000,63.935349,115.514951,-0.003483,199.704587,47.015810,-0.041394,0.000000,0.238409,0.035853,491.898734,777.311328,0.603690,115.514951
0.330000,65.932403,115.984112,-0.003937,199.705375,46.916136,-0.045371,0.000000,0.241169,0.038168,491.645570,800.544784,0.603629,115.984112
0.340000,67.929471,116.452270,-0.004432,199.706819,46.815814,-0.049581,0.000000,0.244046,0.040556,491.392405,823.714148,0.603569,116.452270
0.350000,69.926560,116.919418,-0.004973,199.708926,46.714815,-0.054030,0.000000,0.247043,0.043016,491.139241,846.819420,0.603510,116.919418
0.360000,71.923677,117.385549,-0.005560,199.711698,46.613113,-0.058723,0.000000,0.250164,0.045549,490.886076,869.860599,0.603453,117.385549
0.370000,73.920829,117.850656,-0.006196,199.715142,46.510679,-0.063662,0.000000,0.253410,0.048155,490.632911,892.837686,0.603398,117.850656
0.380000,75.918021,118.314731,-0.006885,199.719261,46.407485,-0.068854,0.000000,0.256786,0.050833,490.379747,915.750681,0.603344,118.314731
0.390000,77.915262,118.777766,-0.007628,199.724060,46.303502,-0.074300,0.000000,0.260294,0.053584,490.126582,938.599583,0.603292,118.777766
0.400000,79.912557,119.239753,-0.008428,199.729544,46.198699,-0.080006,0.000000,0.263938,0.056408,489.873418,961.384394,0.603241,119.239753
0.410000,81.909915,119.700684,-0.009288,199.735716,46.093045,-0.085974,0.000000,0.267721,0.059305,489.620253,984.105111,0.603192,119.700684
0.420000,83.907340,120.160549,-0.010210,199.742582,45.986509,-0.092207,0.000000,0.271647,0.062274,489.367089,1006.761737,0.603144,120.160549
0.430000,85.904842,120.619339,-0.011197,199.750144,45.879058,-0.098708,0.000000,0.275720,0.065316,489.113924,1029.354270,0.603098,120.619339
0.440000,87.902426,121.077046,-0.012252,199.758408,45.770660,-0.105479,0.000000,0.279942,0.068430,488.860759,1051.882711,0.603054,121.077046
0.450000,89.900100,121.533659,-0.013377,199.767378,45.661281,-0.112522,0.000000,0.284320,0.071618,488.607595,1074.347060,0.603011,121.533659
0.460000,91.897870,121.989167,-0.014575,199.777056,45.550884,-0.119838,0.000000,0.288855,0.074878,488.354430,1096.747316,0.602969,121.989167
0.470000,93.895745,122.443562,-0.015850,199.787447,45.439436,-0.127429,0.000000,0.293553,0.078212,488.101266,1119.083480,0.602929,122.443562
0.480000,95.893730,122.896831,-0.017203,199.798555,45.326898,-0.135295,0.000000,0.298419,0.081618,487.848101,1141.355552,0.602891,122.896831
0.490000,97.891834,123.348963,-0.018637,199.810381,45.213234,-0.143436,0.000000,0.303455,0.085097,487.594937,1163.563531,0.602854,123.348963
0.500000,99.890063,123.799947,-0.020155,199.822930,45.098403,-0.151853,0.000000,0.308668,0.088649,487.341772,1185.707419,0.602819,123.799947
0.510000,101.888425,124.249771,-0.021761,199.836204,44.982368,-0.160543,0.000000,0.314062,0.092274,487.088608,1207.787214,0.602785,124.249771
0.520000,103.886927,124.698422,-0.023456,199.850204,44.865086,-0.169505,0.000000,0.319642,0.095972,486.835443,1229.802916,0.602752,124.698422
0.530000,105.885577,125.145887,-0.025243,199.864934,44.746516,-0.178738,0.000000,0.325413,0.099743,486.582278,1251.754527,0.602721,125.145887
0.540000,107.884381,125.592153,-0.027126,199.880395,44.626615,-0.188238,0.000000,0.331381,0.103587,486.329114,1273.642045,0.602692,125.592153
0.550000,109.883347,126.037206,-0.029106,199.896588,44.505337,-0.198003,0.000000,0.337550,0.107504,486.075949,1295.465470,0.602664,126.037206
0.560000,111.882482,126.481033,-0.031186,199.913513,44.382638,-0.208026,0.000000,0.343927,0.111494,485.822785,1317.224804,0.602637,126.481033
0.570000,113.881793,126.923617,-0.033369,199.931171,44.258471,-0.218304,0.000000,0.350518,0.115557,485.569620,1338.920045,0.602612,126.923617
0.580000,115.881289,127.364945,-0.035657,199.949561,44.132787,-0.228830,0.000000,0.357328,0.119694,485.316456,1360.551194,0.602588,127.364945
0.590000,117.880976,127.805001,-0.038053,199.968682,44.005537,-0.239597,0.000000,0.364363,0.123903,485.063291,1382.118250,0.602565,127.805001
0.600000,119.880861,128.243767,-0.040559,199.988532,43.876669,-0.250597,0.000000,0.371631,0.128186,484.810127,1403.621215,0.602544,128.243767
0.610000,121.880952,128.681229,-0.043177,200.009110,43.746132,-0.261820,0.000000,0.379137,0.132542,484.556962,1425.060087,0.602524,128.681229
0.620000,123.881256,129.117367,-0.045910,200.030410,43.613870,-0.273257,0.000000,0.386888,0.136972,484.303797,1446.434866,0.602505,129.117367
0.630000,125.881781,129.552166,-0.048759,200.052431,43.479830,-0.284894,0.000000,0.394893,0.141474,484.050633,1467.745554,0.602488,129.552166
0.640000,127.882532,129.985605,-0.051726,200.075165,43.343953,-0.296720,0.000000,0.403157,0.146050,483.797468,1488.992149,0.602471,129.985605
0.650000,129.883518,130.417667,-0.054813,200.098608,43.206180,-0.308719,0.000000,0.411688,0.150700,483.544304,1510.174651,0.602456,130.417667
0.660000,131.884746,130.848332,-0.058022,200.122751,43.066453,-0.320874,0.000000,0.420494,0.155422,483.291139,1531.293062,0.602442,130.848332
0.670000,133.886222,131.277579,-0.061354,200.147586,42.924707,-0.333168,0.000000,0.429583,0.160215,483.037975,1552.347380,0.602429,131.277579
0.680000,135.887953,131.705387,-0.064810,200.173104,42.780879,-0.345580,0.000000,0.438964,0.165076,482.784810,1573.337606,0.602416,131.705387
0.690000,137.889946,132.131736,-0.068390,200.199292,42.634905,-0.358086,0.000000,0.448644,0.170000,482.531646,1594.263740,0.602405,132.131736
0.700000,139.892207,132.556604,-0.072097,200.226139,42.486715,-0.370663,0.000000,0.458632,0.174985,482.278481,1615.125781,0.602395,132.556604
0.710000,141.894743,132.979966,-0.075930,200.253628,42.336240,-0.383281,0.000000,0.468938,0.180027,482.025316,1635.923730,0.602385,132.979966
0.720000,143.897561,133.401800,-0.079889,200.281743,42.183410,-0.395911,0.000000,0.479570,0.185124,481.772152,1656.657587,0.602376,133.401800
0.730000,145.900666,133.822082,-0.083974,200.310465,42.028150,-0.408518,0.000000,0.490539,0.190272,481.518987,1677.327351,0.602368,133.822082
0.740000,147.904063,134.240786,-0.088185,200.339773,41.870386,-0.421065,0.000000,0.501854,0.195468,481.265823,1697.933024,0.602360,134.240786
0.750000,149.907760,134.657886,-0.092520,200.369644,41.710040,-0.433513,0.000000,0.513525,0.200709,481.012658,1718.474603,0.602352,134.657886
0.760000,151.911760,135.073356,-0.096978,200.400051,41.547032,-0.445816,0.000000,0.525563,0.205991,480.759494,1738.952091,0.602345,135.073356
0.770000,153.916070,135.487169,-0.101557,200.430966,41.381282,-0.457927,0.000000,0.537978,0.211311,480.506329,1759.365486,0.602339,135.487169
0.780000,155.920693,135.899296,-0.106255,200.462356,41.212706,-0.469793,0.000000,0.550782,0.216667,480.253165,1779.714789,0.602332,135.899296
0.790000,157.925635,136.309708,-0.111069,200.494188,41.041219,-0.481358,0.000000,0.563986,0.222055,480.000000,1800.000000,0.602325,136.309708
0.800000,159.930900,136.718376,-0.115995,200.526421,40.866733,-0.492560,0.000000,0.577603,0.227472,479.746835,1820.221118,0.602318,136.718376
0.810000,161.936490,137.125267,-0.121028,200.559016,40.689161,-0.503330,0.000000,0.591644,0.232915,479.493671,1840.378145,0.602311,137.125267
0.820000,163.942409,137.530351,-0.126164,200.591925,40.508411,-0.513597,0.000000,0.606121,0.238381,479.240506,1860.471078,0.602303,137.530351
0.830000,165.948660,137.933595,-0.131397,200.625099,40.324391,-0.523280,0.000000,0.621049,0.243867,478.987342,1880.499920,0.602295,137.933595
0.840000,167.955245,138.334965,-0.136720,200.658484,40.137008,-0.532293,0.000000,0.636440,0.249370,478.734177,1900.464669,0.602285,138.334965
0.850000,169.962165,138.734427,-0.142125,200.692021,39.946168,-0.540544,0.000000,0.652308,0.254886,478.481013,1920.365326,0.602275,138.734427
0.860000,171.969421,139.131945,-0.147604,200.725645,39.751774,-0.547930,0.000000,0.668667,0.260414,478.227848,1940.201891,0.602263,139.131945
0.870000,173.977014,139.527482,-0.153148,200.759289,39.553731,-0.554341,0.000000,0.685532,0.265949,477.974684,1959.974363,0.602250,139.527482
0.880000,175.984943,139.921002,-0.158744,200.792876,39.351942,-0.559658,0.000000,0.702918,0.271490,477.721519,1979.682743,0.602236,139.921002
0.890000,177.993206,140.312465,-0.164382,200.826326,39.146313,-0.563749,0.000000,0.720841,0.277032,477.468354,1999.327031,0.602219,140.312465
0.900000,180.001802,140.701832,-0.170046,200.859551,38.936747,-0.566474,0.000000,0.739317,0.282574,477.215190,2018.907226,0.602200,140.701832
0.910000,182.010726,141.089064,-0.175723,200.892458,38.723153,-0.567678,0.000000,0.758362,0.288113,476.962025,2038.423330,0.602178,141.089064
0.920000,184.019976,141.474118,-0.181395,200.924946,38.505439,-0.567193,0.000000,0.777993,0.293645,476.708861,2057.875340,0.602154,141.474118
0.930000,186.029545,141.856953,-0.187044,200.956904,38.283521,-0.564837,0.000000,0.798228,0.299168,476.455696,2077.263259,0.602126,141.856953
0.940000,188.039427,142.237526,-0.192648,200.988217,38.057316,-0.560411,0.000000,0.819085,0.304679,476.202532,2096.587085,0.602095,142.237526
0.950000,190.049615,142.615794,-0.198185,201.018758,37.826750,-0.553696,0.000000,0.840583,0.310176,475.949367,2115.846819,0.602060,142.615794
0.960000,192.060099,142.991711,-0.203629,201.048392,37.591759,-0.544455,0.000000,0.862741,0.315656,475.696203,2135.042461,0.602021,142.991711
0.970000,194.070868,143.365234,-0.208953,201.076974,37.352289,-0.532429,0.000000,0.885578,0.321117,475.443038,2154.174011,0.601977,143.365234
0.980000,196.081912,143.736317,-0.214127,201.104349,37.108301,-0.517333,0.000000,0.909116,0.326555,475.189873,2173.241468,0.601928,143.736317
0.990000,198.093215,144.104915,-0.219115,201.130349,36.859773,-0.498855,0.000000,0.933375,0.331968,474.936709,2192.244833,0.601873,144.104915
1.000000,200.104763,144.470982,-0.223882,201.154797,36.606707,-0.476655,0.000000,0.958376,0.337355,474.683544,2211.184105,0.601812,144.470982
1.010000,202.116538,144.834474,-0.228385,201.177500,36.349134,-0.450358,0.000000,0.984143,0.342711,474.430380,2230.059285,0.601745,144.834474
1.020000,204.128521,145.195345,-0.232581,201.198254,36.087118,-0.419553,0.000000,1.010698,0.348036,474.177215,2248.870373,0.601671,145.195345
1.030000,206.140689,145.553552,-0.236419,201.216838,35.820769,-0.383789,0.000000,1.038064,0.353326,473.924051,2267.617369,0.601589,145.553552
1.040000,208.153019,145.909055,-0.239845,201.233016,35.550250,-0.342570,0.000000,1.066267,0.358580,473.670886,2286.300272,0.601499,145.909055
1.050000,210.165485,146.261813,-0.242798,201.246535,35.275792,-0.295353,0.000000,1.095331,0.363795,473.417722,2304.919083,0.601400,146.261813
1.060000,212.178056,146.611790,-0.245214,201.257121,34.997709,-0.241543,0.000000,1.125282,0.368969,473.164557,2323.473802,0.601292,146.611790
1.070000,214.190701,146.958954,-0.247018,201.264482,34.716421,-0.180488,0.000000,1.156147,0.374099,472.911392,2341.964429,0.601175,146.958954
1.080000,216.203384,147.303279,-0.248133,201.268300,34.432474,-0.111481,0.000000,1.187952,0.379184,472.658228,2360.390963,0.601046,147.303279
1.090000,218.216066,147.644745,-0.248471,201.268231,34.146578,-0.033753,0.000000,1.220727,0.384222,472.405063,2378.753405,0.600907,147.644745
1.100000,220.228705,147.983341,-0.247936,201.263903,33.859639,0.053518,0.000000,1.254500,0.389211,472.151899,2397.051755,0.600756,147.983341
1.110000,222.241254,148.319069,-0.246424,201.254905,33.572813,0.151200,0.000000,1.289301,0.394148,471.898734,2415.286012,0.600593,148.319069
1.120000,224.253662,148.651945,-0.243822,201.240792,33.287558,0.260195,0.000000,1.325160,0.399032,471.645570,2433.456177,0.600417,148.651945
1.130000,226.265873,148.982002,-0.240008,201.221067,33.005707,0.381402,0.000000,1.362109,0.403861,471.392405,2451.562250,0.600228,148.982002
1.140000,228.277825,149.309297,-0.234851,201.195183,32.729540,0.515677,0.000000,1.400181,0.408634,471.139241,2469.604230,0.600025,149.309297
1.150000,230.289450,149.633916,-0.228213,201.162526,32.461867,0.663750,0.000000,1.439407,0.413347,470.886076,2487.582118,0.599807,149.633916
1.160000,232.300674,149.955977,-0.219952,201.122411,32.206111,0.826125,0.000000,1.479823,0.418001,470.632911,2505.495914,0.599575,149.955977
1.170000,234.311415,150.275641,-0.209923,201.074072,31.966354,1.002923,0.000000,1.521464,0.422593,470.379747,2523.345618,0.599328,150.275641
1.180000,236.321581,150.593114,-0.197986,201.016657,31.747347,1.193692,0.000000,1.564365,0.427121,470.126582,2541.131229,0.599065,150.593114
1.190000,238.331074,150.908658,-0.184014,200.949232,31.554418,1.397187,0.000000,1.608563,0.431584,469.873418,2558.852748,0.598787,150.908658
1.200000,240.339781,151.222591,-0.167903,200.870794,31.393257,1.611154,0.000000,1.654096,0.435981,469.620253,2576.510175,0.598492,151.222591
1.210000,242.347584,151.535286,-0.149581,200.780299,31.269538,1.832190,0.000000,1.701002,0.440311,469.367089,2594.103509,0.598180,151.535286
1.220000,244.354352,151.847170,-0.129023,200.676706,31.188411,2.055757,0.000000,1.749320,0.444571,469.113924,2611.632751,0.597851,151.847170
1.230000,246.359956,152.158711,-0.106259,200.560449,31.154083,2.276410,0.000000,1.799080,0.448761,468.860759,2629.097901,0.597506,152.158711
1.240000,248.364303,152.470386,-0.081376,200.434734,31.167491,2.488322,0.000000,1.850279,0.452879,468.607595,2646.498959,0.597156,152.470386
1.250000,250.367302,152.782651,-0.054516,200.299870,31.226473,2.686009,0.000000,1.902917,0.456924,468.354430,2663.835924,0.596800,152.782651
1.260000,252.368866,153.095925,-0.025867,200.156381,31.327432,2.864841,0.000000,1.956993,0.460896,468.101266,2681.108797,0.596438,153.095925
1.270000,254.368915,153.410583,0.004346,200.004926,31.465810,3.021345,0.000000,2.012505,0.464794,467.848101,2698.317577,0.596069,153.410583
1.280000,256.367377,153.726949,0.035879,199.846229,31.636609,3.153263,0.000000,2.069454,0.468617,467.594937,2715.462266,0.595694,153.726949
1.290000,258.364187,154.045298,0.068473,199.681003,31.834831,3.259426,0.000000,2.127836,0.472367,467.341772,2732.542862,0.595313,154.045298
1.300000,260.359287,154.365855,0.101868,199.509921,32.055772,3.339530,0.000000,2.187652,0.476043,467.088608,2749.559365,0.594924,154.365855
1.310000,262.352623,154.688807,0.135807,199.333585,32.295189,3.393888,0.000000,2.248900,0.479644,466.835443,2766.511777,0.594529,154.688807
1.320000,264.344148,155.014301,0.170039,199.152534,32.549358,3.423211,0.000000,2.311578,0.483172,466.582278,2783.400096,0.594127,155.014301
1.330000,266.333820,155.342451,0.204324,198.967240,32.815057,3.428434,0.000000,2.375685,0.486626,466.329114,2800.224323,0.593718,155.342451
1.340000,268.321602,155.673346,0.238430,198.778127,33.089523,3.410595,0.000000,2.441220,0.490007,466.075949,2816.984458,0.593302,155.673346
1.350000,270.307457,156.007050,0.272137,198.585582,33.370390,3.370744,0.000000,2.508181,0.493314,465.822785,2833.680500,0.592880,156.007050
1.360000,272.291357,156.343607,0.305236,198.389966,33.655623,3.309899,0.000000,2.576566,0.496547,465.569620,2850.312450,0.592451,156.343607
1.370000,274.273273,156.683041,0.337526,198.191632,33.943457,3.229008,0.000000,2.646374,0.499707,465.316456,2866.880308,0.592016,156.683041
1.380000,276.253183,157.025365,0.368816,197.990930,34.232351,3.128938,0.000000,2.717603,0.502793,465.063291,2883.384073,0.591576,157.025365
1.390000,278.231065,157.370574,0.398920,197.788226,34.520933,3.010462,0.000000,2.790250,0.505807,464.810127,2899.823746,0.591130,157.370574
1.400000,280.206904,157.718654,0.427663,197.583913,34.807965,2.874264,0.000000,2.864313,0.508746,464.556962,2916.199327,0.590680,157.718654
1.410000,282.180688,158.069577,0.454872,197.378426,35.092302,2.720938,0.000000,2.939790,0.511613,464.303797,2932.510816,0.590227,158.069577
1.420000,284.152411,158.423305,0.480382,197.172276,35.372846,2.550989,0.000000,3.016677,0.514407,464.050633,2948.758212,0.589770,158.423305
1.430000,286.122072,158.779790,0.504031,196.966109,35.648480,2.364846,0.000000,3.094970,0.517127,463.797468,2964.941516,0.589313,158.779790
1.440000,288.089681,159.138969,0.525659,196.760847,35.917930,2.162876,0.000000,3.174663,0.519775,463.544304,2981.060727,0.588856,159.138969
1.450000,290.055262,159.500763,0.545114,196.558164,36.179352,1.945433,0.000000,3.255528,0.522349,463.291139,2997.115847,0.588403,159.500763
1.460000,292.018891,159.865045,0.562245,196.362886,36.428254,1.713180,0.000000,3.337541,0.524851,463.037975,3013.106874,0.587967,159.865045
1.470000,293.981317,160.231034,0.576992,196.242633,36.598847,1.474684,0.000000,3.420431,0.527280,462.784810,3029.033809,0.587708,160.231034
1.480000,295.943269,160.591798,0.590193,196.195127,36.076377,1.320027,0.000000,3.501978,0.529636,462.531646,3044.896651,0.587290,160.591798
1.490000,297.904671,160.947179,0.602034,196.140238,35.538180,1.184131,0.000000,3.582143,0.531920,462.278481,3060.695401,0.586846,160.947179
1.500000,299.865505,161.297130,0.612698,196.083407,34.995073,1.066370,0.000000,3.660917,0.534131,462.025316,3076.430059,0.586399,161.297130
1.510000,301.825765,161.641631,0.622367,196.025942,34.450113,0.966900,0.000000,3.738296,0.536270,461.772152,3092.100625,0.585953,161.641631
1.520000,303.785449,161.980683,0.631227,195.968415,33.905156,0.886080,0.000000,3.814279,0.538336,461.518987,3107.707098,0.585512,161.980683
1.530000,305.744560,162.314301,0.639471,195.911140,33.361776,0.824379,0.000000,3.888865,0.540330,461.265823,3123.249479,0.585076,162.314301
1.540000,307.703103,162.642516,0.647295,195.854298,32.821526,0.782349,0.000000,3.962054,0.542251,461.012658,3138.727768,0.584648,162.642516
1.550000,309.661083,162.965376,0.654901,195.797975,32.286054,0.760599,0.000000,4.033847,0.544101,460.759494,3154.141964,0.584228,162.965376
1.560000,311.618505,163.282948,0.662498,195.742183,31.757163,0.759772,0.000000,4.104243,0.545878,460.506329,3169.492069,0.583817,163.282948
1.570000,313.575373,163.595317,0.670303,195.686864,31.236866,0.780515,0.000000,4.173245,0.547583,460.253165,3184.778080,0.583415,163.595317
1.580000,315.531692,163.902591,0.678538,195.631892,30.727428,0.823442,0.000000,4.240852,0.549216,460.000000,3200.000000,0.583023,163.902591
1.590000,317.487463,164.204905,0.687429,195.577074,30.231396,0.889072,0.000000,4.307065,0.550777,459.746835,3215.157827,0.582641,164.204905
1.600000,319.442684,164.502421,0.697206,195.522153,29.751631,0.977760,0.000000,4.371885,0.552266,459.493671,3230.251562,0.582271,164.502421
1.610000,321.397353,164.795334,0.708102,195.466808,29.291304,1.089595,0.000000,4.435318,0.553684,459.240506,3245.281205,0.581911,164.795334
1.620000,323.351459,165.083873,0.720345,195.410667,28.853876,1.224286,0.000000,4.497388,0.555029,458.987342,3260.246755,0.581562,165.083873
1.630000,325.304992,165.368303,0.734155,195.353319,28.443029,1.381035,0.000000,4.558118,0.556303,458.734177,3275.148213,0.581224,165.368303
1.640000,327.257936,165.648929,0.749739,195.294339,28.062535,1.558403,0.000000,4.617531,0.557505,458.481013,3289.985579,0.580898,165.648929
1.650000,329.210269,165.926089,0.767282,195.233316,27.716053,1.754209,0.000000,4.675649,0.558636,458.227848,3304.758853,0.580582,165.926089
1.660000,331.161968,166.200158,0.786936,195.169895,27.406868,1.965484,0.000000,4.732494,0.559695,457.974684,3319.468034,0.580278,166.200158
1.670000,333.113006,166.471534,0.808822,195.103816,27.137594,2.188536,0.000000,4.788087,0.560682,457.721519,3334.113123,0.579984,166.471534
1.680000,335.063356,166.740633,0.833013,195.034951,26.909904,2.419120,0.000000,4.842447,0.561598,457.468354,3348.694120,0.579701,166.740633
1.690000,337.012989,167.007876,0.859540,194.963316,26.724347,2.652729,0.000000,4.895595,0.562442,457.215190,3363.211024,0.579429,167.007876
1.700000,338.961898,167.273679,0.888377,194.890949,26.580239,2.883637,0.000000,4.947563,0.563215,456.962025,3377.663836,0.579171,167.273679
1.710000,340.910116,167.538418,0.919432,194.821794,26.473965,3.105584,0.000000,4.998414,0.563916,456.708861,3392.052556,0.578939,167.538418
1.720000,342.857678,167.802425,0.952590,194.756194,26.400650,3.315795,0.000000,5.048195,0.564546,456.455696,3406.377183,0.578730,167.802425
1.730000,344.804624,168.065978,0.987714,194.694576,26.355308,3.512338,0.000000,5.096945,0.565104,456.202532,3420.637718,0.578545,168.065978
1.740000,346.750998,168.329309,1.024654,194.637397,26.333122,3.694065,0.000000,5.144707,0.565591,455.949367,3434.834161,0.578381,168.329309
1.750000,348.696849,168.592605,1.063259,194.585093,26.329632,3.860502,0.000000,5.191518,0.566007,455.696203,3448.966512,0.578238,168.592605
1.760000,350.642229,168.856014,1.103376,194.538046,26.340851,4.011693,0.000000,5.237417,0.566351,455.443038,3463.034770,0.578116,168.856014
1.770000,352.587195,169.119647,1.144857,194.496570,26.363310,4.148063,0.000000,5.282442,0.566623,455.189873,3477.038936,0.578014,169.119647
1.780000,354.531804,169.383588,1.187560,194.460907,26.394045,4.270289,0.000000,5.326629,0.566825,454.936709,3490.979010,0.577931,169.383588
1.790000,356.476116,169.647893,1.231352,194.431226,26.430564,4.379199,0.000000,5.370013,0.566955,454.683544,3504.854991,0.577868,169.647893
1.800000,358.420193,169.912601,1.276109,194.407628,26.470794,4.475701,0.000000,5.412629,0.567013,454.430380,3518.666880,0.577823,169.912601
1.810000,360.364094,170.177731,1.321716,194.390157,26.513021,4.560725,0.000000,5.454513,0.567000,454.177215,3532.414677,0.577796,170.177731
1.820000,362.307882,170.443290,1.368068,194.378809,26.555838,4.635191,0.000000,5.495697,0.566915,453.924051,3546.098382,0.577787,170.443290
1.830000,364.251618,170.709271,1.415068,194.373534,26.598093,4.699985,0.000000,5.536215,0.566759,453.670886,3559.717994,0.577795,170.709271
1.840000,366.195360,170.975659,1.462627,194.374253,26.638844,4.755946,0.000000,5.576100,0.566531,453.417722,3573.273514,0.577819,170.975659
1.850000,368.139169,171.242432,1.510666,194.380854,26.677323,4.803858,0.000000,5.615383,0.566232,453.164557,3586.764942,0.577859,171.242432
1.860000,370.083101,171.509561,1.559110,194.393206,26.712904,4.844450,0.000000,5.654097,0.565861,452.911392,3600.192277,0.577914,171.509561
1.870000,372.027212,171.777012,1.607894,194.411159,26.745077,4.878397,0.000000,5.692272,0.565419,452.658228,3613.555520,0.577983,171.777012
1.880000,373.971558,172.044746,1.656958,194.434550,26.773427,4.906318,0.000000,5.729939,0.564907,452.405063,3626.854671,0.578067,172.044746
1.890000,375.916190,172.312723,1.706245,194.463206,26.797614,4.928783,0.000000,5.767130,0.564326,452.151899,3640.089729,0.578163,172.312723
1.900000,377.861159,172.580896,1.755709,194.496943,26.817361,4.946318,0.000000,5.803873,0.563678,451.898734,3653.260695,0.578273,172.580896
1.910000,379.806515,172.849221,1.805303,194.535574,26.832442,4.959405,0.000000,5.840198,0.562964,451.645570,3666.367569,0.578394,172.849221
1.920000,381.752304,173.117647,1.854987,194.578907,26.842670,4.968485,0.000000,5.876136,0.562184,451.392405,3679.410351,0.578527,173.117647
1.930000,383.698572,173.386126,1.904727,194.626744,26.847894,4.973969,0.000000,5.911716,0.561340,451.139241,3692.389040,0.578671,173.386126
1.940000,385.645360,173.654606,1.954489,194.678889,26.847988,4.976233,0.000000,5.946966,0.560433,450.886076,3705.303637,0.578825,173.654606
1.950000,387.592712,173.923035,2.004246,194.735141,26.842846,4.975626,0.000000,5.981915,0.559465,450.632911,3718.154142,0.578989,173.923035
1.960000,389.540665,174.191358,2.053970,194.795299,26.832382,4.972472,0.000000,6.016593,0.558436,450.379747,3730.940554,0.579161,174.191358
1.970000,391.489256,174.459524,2.103641,194.859161,26.816520,4.967074,0.000000,6.051027,0.557347,450.126582,3743.662875,0.579342,174.459524
1.980000,393.438522,174.727476,2.153238,194.926524,26.795197,4.959713,0.000000,6.085246,0.556201,449.873418,3756.321102,0.579532,174.727476
1.990000,395.388494,174.995159,2.202745,194.997184,26.768358,4.950654,0.000000,6.119279,0.554998,449.620253,3768.915238,0.579728,174.995159
2.000000,397.339203,175.262519,2.252146,195.070938,26.735951,4.940146,0.000000,6.153154,0.553740,449.367089,3781.445281,0.579931,175.262519
2.010000,399.290679,175.529498,2.301431,195.147580,26.697932,4.928425,0.000000,6.186899,0.552427,449.113924,3793.911232,0.580140,175.529498
2.020000,401.242948,175.796040,2.350588,195.226904,26.654257,4.915715,0.000000,6.220542,0.551062,448.860759,3806.313091,0.580355,175.796040
2.030000,403.196035,176.062089,2.399610,195.308702,26.604886,4.902231,0.000000,6.254112,0.549645,448.607595,3818.650857,0.580575,176.062089
2.040000,405.149962,176.327587,2.448492,195.392764,26.549778,4.888178,0.000000,6.287637,0.548178,448.354430,3830.924531,0.580799,176.327587
2.050000,407.104751,176.592476,2.497229,195.478879,26.488893,4.873756,0.000000,6.321146,0.546663,448.101266,3843.134113,0.581027,176.592476
2.060000,409.060419,176.856698,2.545821,195.566832,26.422191,4.859158,0.000000,6.354666,0.545100,447.848101,3855.279603,0.581257,176.856698
2.070000,411.016984,177.120194,2.594267,195.656406,26.349629,4.844574,0.000000,6.388227,0.543491,447.594937,3867.361000,0.581491,177.120194
2.080000,412.974457,177.382906,2.642569,195.747380,26.271165,4.830191,0.000000,6.421857,0.541837,447.341772,3879.378305,0.581726,177.382906
2.090000,414.932853,177.644773,2.690731,195.839529,26.186753,4.816193,0.000000,6.455585,0.540140,447.088608,3891.331517,0.581963,177.644773
2.100000,416.892179,177.905737,2.738758,195.932622,26.096346,4.802766,0.000000,6.489441,0.538402,446.835443,3903.220638,0.582200,177.905737
2.110000,418.852443,178.165736,2.786659,196.026423,25.999896,4.790095,0.000000,6.523453,0.536623,446.582278,3915.045666,0.582437,178.165736
2.120000,420.813650,178.424709,2.834443,196.120691,25.897353,4.778368,0.000000,6.557651,0.534805,446.329114,3926.806602,0.582673,178.424709
2.130000,422.775802,178.682596,2.882121,196.215178,25.788664,4.767777,0.000000,6.592066,0.532950,446.075949,3938.503445,0.582908,178.682596
2.140000,424.738898,178.939334,2.929706,196.309627,25.673775,4.758518,0.000000,6.626726,0.531059,445.822785,3950.136196,0.583141,178.939334
2.150000,426.702936,179.194860,2.977214,196.403775,25.552633,4.750795,0.000000,6.661663,0.529133,445.569620,3961.704855,0.583371,179.194860
2.160000,428.667909,179.449112,3.024662,196.497347,25.425183,4.744819,0.000000,6.696907,0.527175,445.316456,3973.209422,0.583597,179.449112
2.170000,430.633810,179.702026,3.072070,196.590062,25.291371,4.740810,0.000000,6.732490,0.525184,445.063291,3984.649896,0.583819,179.702026
2.180000,432.600626,179.953537,3.119460,196.681625,25.151145,4.739002,0.000000,6.768442,0.523164,444.810127,3996.026278,0.584035,179.953537
2.190000,434.568343,180.203582,3.166857,196.771731,25.004456,4.739641,0.000000,6.804797,0.521114,444.556962,4007.338568,0.584245,180.203582
2.200000,436.536944,180.452094,3.214286,196.860064,24.851261,4.742989,0.000000,6.841586,0.519038,444.303797,4018.586765,0.584449,180.452094
2.210000,438.506407,180.699009,3.261780,196.946291,24.691523,4.749329,0.000000,6.878843,0.516935,444.050633,4029.770870,0.584644,180.699009
2.220000,440.476708,180.944262,3.309369,197.030069,24.525216,4.758963,0.000000,6.916600,0.514808,443.797468,4040.890883,0.584830,180.944262
2.230000,442.447818,181.187785,3.357092,197.111038,24.352326,4.772220,0.000000,6.954892,0.512659,443.544304,4051.946803,0.585007,181.187785
2.240000,444.419706,181.429514,3.404986,197.188821,24.172860,4.789456,0.000000,6.993752,0.510488,443.291139,4062.938632,0.585172,181.429514
2.250000,446.392337,181.669382,3.453097,197.263026,23.986847,4.811061,0.000000,7.033217,0.508297,443.037975,4073.866368,0.585326,181.669382
2.260000,448.365669,181.907325,3.501471,197.333243,23.794349,4.837462,0.000000,7.073321,0.506088,442.784810,4084.730011,0.585466,181.907325
2.270000,450.339659,182.143280,3.550163,197.399041,23.595467,4.869130,0.000000,7.114102,0.503862,442.531646,4095.529563,0.585593,182.143280
2.280000,452.314259,182.377184,3.599228,197.459972,23.390357,4.906584,0.000000,7.155595,0.501620,442.278481,4106.265022,0.585704,182.377184
2.290000,454.289415,182.608976,3.648732,197.515563,23.179241,4.950401,0.000000,7.197839,0.499364,442.025316,4116.936388,0.585798,182.608976
2.300000,456.265068,182.838600,3.698745,197.565323,22.962429,5.001218,0.000000,7.240871,0.497096,441.772152,4127.543663,0.585875,182.838600
2.310000,458.241155,183.066004,3.749342,197.608735,22.740347,5.059746,0.000000,7.284731,0.494816,441.518987,4138.086845,0.585933,183.066004
2.320000,460.217608,183.291140,3.800610,197.645258,22.513567,5.126773,0.000000,7.329458,0.492526,441.265823,4148.565935,0.585970,183.291140
2.330000,462.194351,183.513968,3.852642,197.674324,22.282852,5.203171,0.000000,7.375093,0.490229,441.012658,4158.980933,0.585986,183.513968
2.340000,464.171305,183.734460,3.905541,197.695338,22.049214,5.289901,0.000000,7.421677,0.487924,440.759494,4169.331838,0.585979,183.734460
2.350000,466.148381,183.952600,3.959421,197.707672,21.813989,5.388010,0.000000,7.469252,0.485613,440.506329,4179.618651,0.585948,183.952600
2.360000,468.125488,184.168389,4.014407,197.710665,21.578933,5.498616,0.000000,7.517862,0.483298,440.253165,4189.841372,0.585892,184.168389
2.370000,470.102524,184.381853,4.070636,197.703619,21.346350,5.622879,0.000000,7.567549,0.480981,440.000000,4200.000000,0.585809,184.381853
2.380000,472.079382,184.593045,4.128255,197.685791,21.119245,5.761932,0.000000,7.618358,0.478662,439.746835,4210.094536,0.585698,184.593045
2.390000,474.055946,184.802060,4.187423,197.656389,20.901505,5.916765,0.000000,7.670336,0.476343,439.493671,4220.124980,0.585559,184.802060
2.400000,476.032092,185.009042,4.248303,197.614565,20.698106,6.088022,0.000000,7.723527,0.474025,439.240506,4230.091332,0.585391,185.009042
2.410000,478.007686,185.214194,4.311060,197.559407,20.515274,6.275697,0.000000,7.777980,0.471709,438.987342,4239.993591,0.585192,185.214194
2.420000,479.982585,185.417800,4.375847,197.489938,20.360547,6.478685,0.000000,7.833742,0.469397,438.734177,4249.831758,0.584962,185.417800
2.430000,481.956636,185.620226,4.442789,197.405126,20.242585,6.694249,0.000000,7.890862,0.467090,438.481013,4259.605832,0.584701,185.620226
2.440000,483.929675,185.821931,4.511964,197.303904,20.170556,6.917511,0.000000,7.949390,0.464790,438.227848,4269.315815,0.584407,185.821931
2.450000,485.901527,186.023461,4.583377,197.185208,20.153033,7.141241,0.000000,8.009376,0.462497,437.974684,4278.961705,0.584079,186.023461
2.460000,487.872060,186.225418,4.656944,197.053298,20.195703,7.356696,0.000000,8.070829,0.460212,437.721519,4288.543503,0.583730,186.225418
2.470000,489.841156,186.428393,4.732493,196.909585,20.297422,7.554917,0.000000,8.133748,0.457938,437.468354,4298.061208,0.583363,186.428393
2.480000,491.808703,186.632927,4.809773,196.754714,20.453436,7.728007,0.000000,8.198132,0.455674,437.215190,4307.514821,0.582978,186.632927
2.490000,493.774599,186.839492,4.888475,196.589518,20.656544,7.870255,0.000000,8.263979,0.453423,436.962025,4316.904342,0.582575,186.839492
2.500000,495.738747,187.048477,4.968260,196.414877,20.898442,7.978499,0.000000,8.331289,0.451185,436.708861,4326.229771,0.582152,187.048477
2.510000,497.701063,187.260186,5.048779,196.231610,21.170889,8.051824,0.000000,8.400059,0.448961,436.455696,4335.491107,0.581712,187.260186
2.520000,499.661468,187.474850,5.129688,196.040433,21.466445,8.090939,0.000000,8.470289,0.446753,436.202532,4344.688351,0.581253,187.474850
2.530000,501.619887,187.692638,5.210663,195.841954,21.778766,8.097533,0.000000,8.541977,0.444561,435.949367,4353.821503,0.580775,187.692638
2.540000,503.576254,187.913664,5.291401,195.636699,22.102614,8.073773,0.000000,8.615121,0.442387,435.696203,4362.890562,0.580280,187.913664
2.550000,505.530506,188.138001,5.371621,195.425137,22.433732,8.021971,0.000000,8.689718,0.440231,435.443038,4371.895530,0.579767,188.138001
2.560000,507.482583,188.365688,5.451065,195.207715,22.768664,7.944384,0.000000,8.765768,0.438094,435.189873,4380.836404,0.579237,188.365688
2.570000,509.432432,188.596734,5.529496,194.984882,23.104595,7.843116,0.000000,8.843267,0.435978,434.936709,4389.713187,0.578691,188.596734
2.580000,511.380003,188.831126,5.606696,194.757106,23.439200,7.720074,0.000000,8.922212,0.433883,434.683544,4398.525877,0.578129,188.831126
2.590000,513.325252,189.068831,5.682466,194.524899,23.770534,7.576959,0.000000,9.002603,0.431811,434.430380,4407.274475,0.577553,189.068831
2.600000,515.268140,189.309801,5.756619,194.288830,24.096938,7.415270,0.000000,9.084434,0.429761,434.177215,4415.958981,0.576964,189.309801
2.610000,517.208635,189.553970,5.828982,194.049551,24.416958,7.236321,0.000000,9.167703,0.427736,433.924051,4424.579394,0.576364,189.553970
2.620000,519.146714,189.801263,5.899395,193.807833,24.729266,7.041259,0.000000,9.252406,0.425735,433.670886,4433.135715,0.575755,189.801263
2.630000,521.082360,190.051588,5.967705,193.564652,25.032554,6.831078,0.000000,9.338537,0.423759,433.417722,4441.627944,0.575138,190.051588
2.640000,523.015575,190.304841,6.033772,193.321420,25.325286,6.606656,0.000000,9.426088,0.421810,433.164557,4450.056081,0.574518,190.304841
2.650000,524.946384,190.560889,6.097460,193.080956,25.604756,6.368840,0.000000,9.514822,0.419888,432.911392,4458.420125,0.573903,190.560889
2.660000,526.874947,190.819474,6.158653,192.856273,25.858470,6.119291,0.000000,9.604682,0.417993,432.658228,4466.720077,0.573324,190.819474
2.670000,528.802350,191.072989,6.217778,192.740355,25.351535,5.912512,0.000000,9.693236,0.416127,432.405063,4474.955937,0.572772,191.072989
2.680000,530.728408,191.321054,6.274992,192.605781,24.806489,5.721381,0.000000,9.780393,0.414289,432.151899,4483.127704,0.572157,191.321054
2.690000,532.653091,191.563556,6.330446,192.468280,24.250220,5.545334,0.000000,9.866142,0.412482,431.898734,4491.235379,0.571535,191.563556
2.700000,534.576394,191.800423,6.384292,192.330318,23.686650,5.384634,0.000000,9.950479,0.410704,431.645570,4499.278962,0.570915,191.800423
2.710000,536.498324,192.031600,6.436689,192.193033,23.117700,5.239749,0.000000,10.033401,0.408958,431.392405,4507.258452,0.570301,192.031600
2.720000,538.418896,192.257048,6.487802,192.057171,22.544867,5.111313,0.000000,10.114911,0.407243,431.139241,4515.173850,0.569696,192.257048
2.730000,540.338129,192.476744,6.537804,191.923285,21.969593,5.000126,0.000000,10.195007,0.405560,430.886076,4523.025156,0.569103,192.476744
2.740000,542.256047,192.690678,6.586875,191.791797,21.393419,4.907168,0.000000,10.273693,0.403909,430.632911,4530.812370,0.568522,192.690678
2.750000,544.172677,192.898859,6.635212,191.663023,20.818077,4.833620,0.000000,10.350977,0.402291,430.379747,4538.535491,0.567956,192.898859
2.760000,546.088049,193.101315,6.683021,191.537176,20.245595,4.780890,0.000000,10.426896,0.400707,430.126582,4546.194520,0.567405,193.101315
2.770000,548.002193,193.298099,6.730527,191.414366,19.678415,4.750640,0.000000,10.501489,0.399156,429.873418,4553.789457,0.566871,193.298099
2.780000,549.915139,193.489295,6.777975,191.294597,19.119557,4.744801,0.000000,10.574791,0.397640,429.620253,4561.320301,0.566355,193.489295
2.790000,551.826916,193.675023,6.825630,191.177750,18.572844,4.765551,0.000000,10.646839,0.396159,429.367089,4568.787053,0.565858,193.675023
2.800000,553.737552,193.855455,6.873783,191.063568,18.043183,4.815220,0.000000,10.717669,0.394712,429.113924,4576.189713,0.565379,193.855455
2.810000,555.647068,194.030824,6.922743,190.951643,17.536927,4.896054,0.000000,10.787315,0.393301,428.860759,4583.528281,0.564920,194.030824
2.820000,557.555482,194.201446,6.972840,190.841406,17.062216,5.009710,0.000000,10.855778,0.391926,428.607595,4590.802756,0.564480,194.201446
2.830000,559.462804,194.367737,7.024404,190.732152,16.629100,5.156361,0.000000,10.923059,0.390587,428.354430,4598.013139,0.564060,194.367737
2.840000,561.369035,194.530228,7.077738,190.623129,16.249045,5.333406,0.000000,10.989158,0.389284,428.101266,4605.159430,0.563660,194.530228
2.850000,563.274172,194.689561,7.133080,190.513721,15.933302,5.534191,0.000000,11.054078,0.388018,427.848101,4612.241628,0.563279,194.689561
2.860000,565.178209,194.846462,7.190557,190.403695,15.690067,5.747730,0.000000,11.117818,0.386788,427.594937,4619.259734,0.562916,194.846462
2.870000,567.081169,195.001673,7.250183,190.296000,15.521155,5.962537,0.000000,11.180404,0.385596,427.341772,4626.213748,0.562580,195.001673
2.880000,568.983116,195.155847,7.311871,190.194718,15.417421,6.168818,0.000000,11.241888,0.384441,427.088608,4633.103669,0.562278,195.155847
2.890000,570.884128,195.309498,7.375452,190.101152,15.365051,6.358110,0.000000,11.302323,0.383324,426.835443,4639.929498,0.562011,195.309498
2.900000,572.784295,195.462998,7.440715,190.016666,15.350045,6.526285,0.000000,11.361757,0.382245,426.582278,4646.691235,0.561777,195.462998
2.910000,574.683718,195.616602,7.507440,189.942373,15.360374,6.672566,0.000000,11.420241,0.381203,426.329114,4653.388880,0.561577,195.616602
2.920000,576.582509,195.770469,7.575422,189.879035,15.386674,6.798155,0.000000,11.477821,0.380200,426.075949,4660.022432,0.561412,195.770469
2.930000,578.480779,195.924689,7.644473,189.827077,15.422065,6.905145,0.000000,11.534547,0.379234,425.822785,4666.591892,0.561280,195.924689
2.940000,580.378646,196.079306,7.714432,189.786648,15.461646,6.995874,0.000000,11.590463,0.378308,425.569620,4673.097260,0.561182,196.079306
2.950000,582.276223,196.234326,7.785158,189.757695,15.501977,7.072589,0.000000,11.645615,0.377419,425.316456,4679.538535,0.561116,196.234326
2.960000,584.173623,196.389732,7.856531,189.740014,15.540662,7.137313,0.000000,11.700049,0.376569,425.063291,4685.915719,0.561081,196.389732
2.970000,586.070956,196.545493,7.928449,189.733294,15.576038,7.191803,0.000000,11.753808,0.375758,424.810127,4692.228809,0.561077,196.545493
2.980000,587.968327,196.701562,8.000825,189.737151,15.606950,7.237565,0.000000,11.806936,0.374985,424.556962,4698.477808,0.561102,196.701562
2.990000,589.865839,196.857888,8.073583,189.751150,15.632600,7.275876,0.000000,11.859476,0.374251,424.303797,4704.662714,0.561154,196.857888
3.000000,591.763587,197.014413,8.146662,189.774819,15.652436,7.307819,0.000000,11.911470,0.373555,424.050633,4710.783528,0.561233,197.014413
3.010000,593.661664,197.171073,8.220005,189.807661,15.666083,7.334313,0.000000,11.962962,0.372899,423.797468,4716.840250,0.561337,197.171073
3.020000,595.560155,197.327806,8.293566,189.849162,15.673284,7.356141,0.000000,12.013993,0.372281,423.544304,4722.832879,0.561464,197.327806
3.030000,597.459143,197.484545,8.367306,189.898800,15.673866,7.373971,0.000000,12.064605,0.371701,423.291139,4728.761416,0.561612,197.484545
3.040000,599.358704,197.641222,8.441190,189.956041,15.667716,7.388379,0.000000,12.114839,0.371160,423.037975,4734.625861,0.561781,197.641222
3.050000,601.258907,197.797770,8.515188,190.020349,15.654758,7.399862,0.000000,12.164736,0.370658,422.784810,4740.426214,0.561969,197.797770
3.060000,603.159819,197.954119,8.589277,190.091185,15.634940,7.408856,0.000000,12.214337,0.370195,422.531646,4746.162474,0.562174,197.954119
3.070000,605.061499,198.110201,8.663434,190.168007,15.608228,7.415741,0.000000,12.263683,0.369769,422.278481,4751.834642,0.562395,198.110201
3.080000,606.964002,198.265947,8.737643,190.250270,15.574591,7.420857,0.000000,12.312815,0.369382,422.025316,4757.442718,0.562630,198.265947
3.090000,608.867376,198.421287,8.811888,190.337429,15.534004,7.424505,0.000000,12.361774,0.369033,421.772152,4762.986701,0.562877,198.421287
3.100000,610.771666,198.576152,8.886158,190.428937,15.486439,7.426962,0.000000,12.410600,0.368722,421.518987,4768.466592,0.563135,198.576152
3.110000,612.676908,198.730470,8.960442,190.524244,15.431863,7.428478,0.000000,12.459334,0.368449,421.265823,4773.882391,0.563403,198.730470
3.120000,614.583136,198.884173,9.034735,190.622797,15.370236,7.429287,0.000000,12.508017,0.368214,421.012658,4779.234097,0.563679,198.884173
3.130000,616.490376,199.037188,9.109031,190.724040,15.301509,7.429611,0.000000,12.556690,0.368016,420.759494,4784.521711,0.563960,199.037188
3.140000,618.398651,199.189444,9.183328,190.827411,15.225624,7.429660,0.000000,12.605394,0.367855,420.506329,4789.745233,0.564247,199.189444
3.150000,620.307974,199.340869,9.257624,190.932343,15.142513,7.429641,0.000000,12.654171,0.367732,420.253165,4794.904663,0.564536,199.340869
3.160000,622.218357,199.491390,9.331922,191.038264,15.052098,7.429758,0.000000,12.703061,0.367645,420.000000,4800.000000,0.564827,199.491390
3.170000,624.129802,199.640933,9.406224,191.144590,14.954288,7.430217,0.000000,12.752107,0.367594,419.746835,4805.031245,0.565118,199.640933
3.180000,626.042310,199.789423,9.480536,191.250733,14.848983,7.431228,0.000000,12.801351,0.367580,419.493671,4809.998398,0.565406,199.789423
3.190000,627.955871,199.936783,9.554866,191.356091,14.736075,7.433013,0.000000,12.850835,0.367602,419.240506,4814.901458,0.565691,199.936783
3.200000,629.870471,200.082938,9.629225,191.460052,14.615444,7.435804,0.000000,12.900602,0.367660,418.987342,4819.740426,0.565970,200.082938
3.210000,631.786091,200.227808,9.703623,191.561993,14.486964,7.439851,0.000000,12.950695,0.367753,418.734177,4824.515302,0.566242,200.227808
3.220000,633.702704,200.371313,9.778077,191.661275,14.350506,7.445427,0.000000,13.001159,0.367880,418.481013,4829.226086,0.566505,200.371313
3.230000,635.620276,200.513372,9.852606,191.757244,14.205934,7.452833,0.000000,13.052036,0.368043,418.227848,4833.872777,0.566756,200.513372
3.240000,637.538769,200.653903,9.927230,191.849234,14.053116,7.462402,0.000000,13.103371,0.368239,417.974684,4838.455376,0.566995,200.653903
3.250000,639.458134,200.792822,10.001975,191.936557,13.891927,7.474512,0.000000,13.155211,0.368470,417.721519,4842.973882,0.567219,200.792822
3.260000,641.378319,200.930045,10.076871,192.018511,13.722253,7.489588,0.000000,13.207600,0.368734,417.468354,4847.428297,0.567427,200.930045
3.270000,643.299263,201.065485,10.151952,192.094373,13.544006,7.508121,0.000000,13.260585,0.369031,417.215190,4851.818619,0.567615,201.065485
3.280000,645.220897,201.199056,10.227259,192.163403,13.357131,7.530674,0.000000,13.314212,0.369360,416.962025,4856.144849,0.567783,201.199056
3.290000,647.143146,201.330673,10.302838,192.224841,13.161630,7.557905,0.000000,13.368530,0.369722,416.708861,4860.406986,0.567928,201.330673
3.300000,649.065925,201.460248,10.378743,192.277906,12.957583,7.590580,0.000000,13.423586,0.370115,416.455696,4864.605031,0.568048,201.460248
3.310000,650.989143,201.587700,10.455039,192.321800,12.745187,7.629605,0.000000,13.479430,0.370539,416.202532,4868.738984,0.568140,201.587700
3.320000,652.912700,201.712948,10.531800,192.355706,12.524808,7.676051,0.000000,13.536111,0.370994,415.949367,4872.808845,0.568203,201.712948
3.330000,654.836488,201.835919,10.609112,192.378790,12.297055,7.731194,0.000000,13.593680,0.371479,415.696203,4876.814613,0.568235,201.835919
3.340000,656.760390,201.956548,10.687077,192.390203,12.062893,7.796553,0.000000,13.652188,0.371994,415.443038,4880.756289,0.568234,201.956548
3.350000,658.684280,202.074786,10.765817,192.389085,11.823807,7.873934,0.000000,13.711687,0.372538,415.189873,4884.633873,0.568197,202.074786
3.360000,660.608026,202.190606,10.845471,192.374568,11.582052,7.965463,0.000000,13.772230,0.373110,414.936709,4888.447364,0.568123,202.190606
3.370000,662.531484,202.304017,10.926207,192.345783,11.341024,8.073585,0.000000,13.833871,0.373710,414.683544,4892.196763,0.568010,202.304017
3.380000,664.454503,202.415075,11.008217,192.301865,11.105805,8.200960,0.000000,13.896663,0.374338,414.430380,4895.882070,0.567857,202.415075
3.390000,666.376922,202.523914,11.091718,192.241967,10.883920,8.350144,0.000000,13.960663,0.374992,414.177215,4899.503285,0.567664,202.523914
3.400000,668.298575,202.630776,11.176946,192.165277,10.686244,8.522810,0.000000,14.025926,0.375673,413.924051,4903.060407,0.567429,202.630776
3.410000,670.219286,202.736053,11.264129,192.071044,10.527689,8.718233,0.000000,14.092510,0.376379,413.670886,4906.553437,0.567153,202.736053
3.420000,672.138872,202.840320,11.353439,191.958623,10.426671,8.930985,0.000000,14.160471,0.377110,413.417722,4909.982375,0.566836,202.840320
3.430000,674.057147,202.944339,11.444928,191.827512,10.401895,9.148896,0.000000,14.229869,0.377865,413.164557,4913.347220,0.566477,202.944339
3.440000,675.973959,203.048994,11.538511,191.681223,10.465489,9.358310,0.000000,14.300726,0.378644,412.911392,4916.647973,0.566088,203.048994
3.450000,677.889192,203.155125,11.633950,191.523287,10.613140,9.543922,0.000000,14.373042,0.379446,412.658228,4919.884634,0.565676,203.155125
3.460000,679.802741,203.263434,11.730877,191.354953,10.830903,9.692758,0.000000,14.446816,0.380271,412.405063,4923.057202,0.565240,203.263434
3.470000,681.714515,203.374453,11.828869,191.177323,11.101868,9.799175,0.000000,14.522045,0.381117,412.151899,4926.165679,0.564780,203.374453
3.480000,683.624427,203.488559,11.927501,190.991202,11.410612,9.863135,0.000000,14.598728,0.381984,411.898734,4929.210062,0.564297,203.488559
3.490000,685.532398,203.606008,12.026376,190.797141,11.744895,9.887541,0.000000,14.676863,0.382872,411.645570,4932.190354,0.563792,203.606008
3.500000,687.438354,203.726964,12.125139,190.595544,12.095581,9.876313,0.000000,14.756449,0.383779,411.392405,4935.106553,0.563263,203.726964
3.510000,689.342221,203.851523,12.223473,190.386756,12.455961,9.833387,0.000000,14.837484,0.384706,411.139241,4937.958660,0.562713,203.851523
3.520000,691.243932,203.979734,12.321096,190.171127,12.821073,9.762300,0.000000,14.919965,0.385651,410.886076,4940.746675,0.562141,203.979734
3.530000,693.143423,204.111606,12.417757,189.949048,13.187159,9.666084,0.000000,15.003889,0.386613,410.632911,4943.470598,0.561549,204.111606
3.540000,695.040633,204.247119,12.513230,189.720977,13.551294,9.547281,0.000000,15.089255,0.387593,410.379747,4946.130428,0.560939,204.247119
3.550000,696.935507,204.386230,12.607310,189.487456,13.911130,9.408007,0.000000,15.176058,0.388589,410.126582,4948.726166,0.560310,204.386230
3.560000,698.827998,204.528877,12.699810,189.249120,14.264721,9.250021,0.000000,15.264297,0.389601,409.873418,4951.257811,0.559666,204.528877
3.570000,700.718066,204.674981,12.790558,189.006718,14.610402,9.074783,0.000000,15.353966,0.390628,409.620253,4953.725365,0.559009,204.674981
3.580000,702.605677,204.824448,12.879393,188.761136,14.946688,8.883511,0.000000,15.445063,0.391669,409.367089,4956.128826,0.558340,204.824448
3.590000,704.490812,204.977170,12.966165,188.513461,15.272165,8.677215,0.000000,15.537581,0.392724,409.113924,4958.468194,0.557663,204.977170
3.600000,706.373463,205.133022,13.050732,188.265153,15.585273,8.456742,0.000000,15.631514,0.393792,408.860759,4960.743471,0.556981,205.133022
3.610000,708.253650,205.291858,13.132961,188.018710,15.883584,8.222844,0.000000,15.726847,0.394872,408.607595,4962.954655,0.556302,205.291858
3.620000,710.131477,205.453442,13.212727,187.782720,16.158400,7.976573,0.000000,15.823322,0.395964,408.354430,4965.101747,0.555649,205.453442
3.630000,712.007873,205.610296,13.290242,187.639566,15.685413,7.751534,0.000000,15.918565,0.397068,408.101266,4967.184746,0.555085,205.610296
3.640000,713.882516,205.761810,13.365656,187.464276,15.151382,7.541358,0.000000,16.012424,0.398181,407.848101,4969.203653,0.554418,205.761810
3.650000,715.755379,205.907840,13.439121,187.286285,14.603001,7.346532,0.000000,16.104884,0.399305,407.594937,4971.158468,0.553746,205.907840
3.660000,717.626467,206.048288,13.510799,187.108820,14.044813,7.167797,0.000000,16.195942,0.400437,407.341772,4973.049191,0.553080,206.048288
3.670000,719.495800,206.183078,13.580860,186.933348,13.479010,7.006074,0.000000,16.285596,0.401579,407.088608,4974.875821,0.552426,206.183078
3.680000,721.363409,206.312152,13.649484,186.760849,12.907381,6.862480,0.000000,16.373884,0.402728,406.835443,4976.638359,0.551786,206.312152
3.690000,723.229330,206.435470,13.716868,186.592068,12.331733,6.738363,0.000000,16.460855,0.403884,406.582278,4978.336805,0.551164,206.435470
3.700000,725.093605,206.553010,13.783221,186.427590,11.754083,6.635332,0.000000,16.546555,0.405048,406.329114,4979.971158,0.550561,206.553010
3.710000,726.956284,206.664779,13.848774,186.267869,11.176807,6.555305,0.000000,16.631033,0.406217,406.075949,4981.541420,0.549980,206.664779
3.720000,728.817416,206.770807,13.913780,186.113234,10.602814,6.500551,0.000000,16.714330,0.407392,405.822785,4983.047589,0.549422,206.770807
3.730000,730.677055,206.871164,13.978517,185.963892,10.035781,6.473716,0.000000,16.796448,0.408571,405.569620,4984.489665,0.548888,206.871164
3.740000,732.535255,206.965969,14.043295,185.819918,9.480478,6.477784,0.000000,16.877387,0.409755,405.316456,4985.867649,0.548380,206.965969
3.750000,734.392067,207.055401,14.108454,185.681256,8.943197,6.515930,0.000000,16.957148,0.410943,405.063291,4987.181541,0.547899,207.055401
3.760000,736.247544,207.139724,14.174365,185.547719,8.432265,6.591110,0.000000,17.035734,0.412134,404.810127,4988.431341,0.547444,207.139724
3.770000,738.101734,207.219309,14.241417,185.419019,7.958492,6.705177,0.000000,17.113144,0.413328,404.556962,4989.617049,0.547016,207.219309
3.780000,739.954683,207.294660,14.309991,185.294849,7.535079,6.857360,0.000000,17.189380,0.414523,404.303797,4990.738664,0.546616,207.294660
3.790000,741.806433,207.366422,14.380414,185.175022,7.176199,7.042296,0.000000,17.264443,0.415720,404.050633,4991.796187,0.546243,207.366422
3.800000,743.657030,207.435358,14.452902,185.059662,6.893618,7.248824,0.000000,17.338334,0.416918,403.797468,4992.789617,0.545896,207.435358
3.810000,745.506535,207.502281,14.527522,184.950540,6.692298,7.462068,0.000000,17.411065,0.418117,403.544304,4993.718955,0.545578,207.502281
3.820000,747.355073,207.567918,14.604218,184.853827,6.563731,7.669508,0.000000,17.482696,0.419315,403.291139,4994.584201,0.545306,207.567918
3.830000,749.202777,207.632835,14.682820,184.770312,6.491722,7.860258,0.000000,17.553287,0.420512,403.037975,4995.385355,0.545076,207.632835
3.840000,751.049785,207.697432,14.763111,184.700811,6.459710,8.029062,0.000000,17.622897,0.421709,402.784810,4996.122416,0.544890,207.697432
3.850000,752.896244,207.761970,14.844860,184.645885,6.453723,8.174944,0.000000,17.691582,0.422904,402.531646,4996.795385,0.544748,207.761970
3.860000,754.742301,207.826602,14.927853,184.605760,6.463211,8.299314,0.000000,17.759398,0.424096,402.278481,4997.404262,0.544647,207.826602
3.870000,756.588105,207.891408,15.011899,184.580368,6.480671,8.404577,0.000000,17.826401,0.425286,402.025316,4997.949047,0.544589,207.891408
3.880000,758.433799,207.956418,15.096832,184.569408,6.500928,8.493338,0.000000,17.892644,0.426472,401.772152,4998.429739,0.544571,207.956418
3.890000,760.279523,208.021622,15.182513,184.572412,6.520462,8.568048,0.000000,17.958182,0.427655,401.518987,4998.846339,0.544592,208.021622
3.900000,762.125411,208.086991,15.268822,184.588789,6.536891,8.630867,0.000000,18.023067,0.428834,401.265823,4999.198846,0.544651,208.086991
3.910000,763.971590,208.152477,15.355658,184.617866,6.548607,8.683646,0.000000,18.087351,0.430008,401.012658,4999.487262,0.544746,208.152477
3.920000,765.818179,208.218023,15.442938,184.658911,6.554525,8.727949,0.000000,18.151088,0.431177,400.759494,4999.711585,0.544874,208.218023
3.930000,767.665290,208.283562,15.530589,184.711148,6.553914,8.765093,0.000000,18.214328,0.432341,400.506329,4999.871815,0.545033,208.283562
3.940000,769.513028,208.349025,15.618550,184.773775,6.546282,8.796189,0.000000,18.277123,0.433498,400.253165,4999.967954,0.545221,208.349025
3.950000,771.361488,208.414337,15.706772,184.845964,6.531298,8.822176,0.000000,18.339524,0.434649,400.000000,5000.000000,0.545435,208.414337
3.960000,773.210756,208.479425,15.795211,184.926875,6.508741,8.843856,0.000000,18.401581,0.435793,399.746835,4999.967954,0.545674,208.479425
3.970000,775.060913,208.544209,15.883830,185.015654,6.478456,8.861920,0.000000,18.463346,0.436930,399.493671,4999.871815,0.545935,208.544209
3.980000,776.912027,208.608613,15.972600,185.111438,6.440334,8.876968,0.000000,18.524869,0.438058,399.240506,4999.711585,0.546216,208.608613
3.990000,778.764161,208.672556,16.061495,185.213355,6.394293,8.889531,0.000000,18.586201,0.439179,398.987342,4999.487262,0.546513,208.672556
4.000000,780.617366,208.735958,16.150496,185.320528,6.340260,8.900081,0.000000,18.647393,0.440291,398.734177,4999.198846,0.546824,208.735958
4.010000,782.471687,208.798740,16.239586,185.432071,6.278169,8.909053,0.000000,18.708495,0.441394,398.481013,4998.846339,0.547148,208.798740
4.020000,784.327158,208.860820,16.328755,185.547091,6.207950,8.916848,0.000000,18.769558,0.442488,398.227848,4998.429739,0.547481,208.860820
4.030000,786.183805,208.922115,16.417993,185.664687,6.129527,8.923846,0.000000,18.830634,0.443571,397.974684,4997.949047,0.547820,208.922115
4.040000,788.041644,208.982543,16.507297,185.783951,6.042814,8.930418,0.000000,18.891774,0.444645,397.721519,4997.404262,0.548164,208.982543
4.050000,789.900684,209.042020,16.596667,185.903964,5.947717,8.936932,0.000000,18.953030,0.445708,397.468354,4996.795385,0.548509,209.042020
4.060000,791.760922,209.100461,16.686104,186.023798,5.844131,8.943763,0.000000,19.014453,0.446760,397.215190,4996.122416,0.548853,209.100461
4.070000,793.622347,209.157781,16.775617,186.142516,5.731943,8.951300,0.000000,19.076097,0.447800,396.962025,4995.385355,0.549193,209.157781
4.080000,795.484938,209.213891,16.865217,186.259165,5.611036,8.959958,0.000000,19.138013,0.448830,396.708861,4994.584201,0.549527,209.213891
4.090000,797.348666,209.268704,16.954919,186.372784,5.481294,8.970185,0.000000,19.200255,0.449847,396.455696,4993.718955,0.549852,209.268704
4.100000,799.213490,209.322130,17.044744,186.482397,5.342603,8.982475,0.000000,19.262878,0.450851,396.202532,4992.789617,0.550164,209.322130
4.110000,801.079360,209.374079,17.134717,186.587016,5.194869,8.997383,0.000000,19.325934,0.451844,395.949367,4991.796187,0.550462,209.374079
4.120000,802.946217,209.424459,17.224873,186.685637,5.038026,9.015532,0.000000,19.389480,0.452823,395.696203,4990.738664,0.550742,209.424459
4.130000,804.813989,209.473180,17.315249,186.777247,4.872053,9.037640,0.000000,19.453570,0.453789,395.443038,4989.617049,0.551002,209.473180
4.140000,806.682598,209.520150,17.405894,186.860820,4.697002,9.064534,0.000000,19.518261,0.454741,395.189873,4988.431341,0.551239,209.520150
4.150000,808.551951,209.565280,17.496866,186.935319,4.513031,9.097178,0.000000,19.583609,0.455680,394.936709,4987.181541,0.551450,209.565280
4.160000,810.421948,209.608485,17.588233,186.999703,4.320454,9.136700,0.000000,19.649673,0.456604,394.683544,4985.867649,0.551632,209.608485
4.170000,812.292477,209.649683,17.680077,187.052929,4.119812,9.184425,0.000000,19.716510,0.457515,394.430380,4984.489665,0.551782,209.649683
4.180000,814.163417,209.688802,17.772497,187.093957,3.911972,9.241918,0.000000,19.784180,0.458410,394.177215,4983.047589,0.551898,209.688802
4.190000,816.034634,209.725785,17.865607,187.121765,3.698276,9.311012,0.000000,19.852742,0.459291,393.924051,4981.541420,0.551977,209.725785
4.200000,817.905988,209.760593,17.959545,187.135358,3.480752,9.393843,0.000000,19.922256,0.460157,393.670886,4979.971158,0.552018,209.760593
4.210000,819.777326,209.793217,18.054474,187.133792,3.262421,9.492840,0.000000,19.992785,0.461008,393.417722,4978.336805,0.552016,209.793217
4.220000,821.648488,209.823694,18.150580,187.116195,3.047735,9.610645,0.000000,20.064390,0.461843,393.164557,4976.638359,0.551972,209.823694
4.230000,823.519306,209.852126,18.248079,187.081812,2.843150,9.749869,0.000000,20.137135,0.462663,392.911392,4974.875821,0.551883,209.852126
4.240000,825.389606,209.878704,18.347204,187.030041,2.657809,9.912528,0.000000,20.211083,0.463467,392.658228,4973.049191,0.551748,209.878704
