Time(s),X(m),Y(m),Z(m),Vx(m/s),Vy(m/s),Vz(m/s),Roll(rad),Pitch(rad),Yaw(rad),Mass(kg),Thrust(N),Mach,Altitude(m)
0.000000,0.000000,100.000000,0.000000,200.000000,50.000000,0.000000,0.000000,0.200000,0.000000,500.000000,0.000000,0.606500,100.000000
0.010000,1.999820,100.499094,0.000000,199.982046,49.909401,0.000000,0.000000,0.199963,0.000000,499.746835,25.284410,0.606387,100.499094
0.020000,3.999467,100.997282,0.000000,199.964614,49.818820,0.000000,0.000000,0.199997,0.000062,499.493671,50.504727,0.606276,100.997282
0.030000,5.998944,101.494565,-0.000000,199.947709,49.728237,-0.000008,0.000000,0.200104,0.000184,499.240506,75.660952,0.606167,101.494565
0.040000,7.998257,101.990941,-0.000000,199.931335,49.637634,-0.000031,0.000000,0.200282,0.000367,498.987342,100.753084,0.606060,101.990941
0.050000,9.997412,102.486411,-0.000001,199.915495,49.546994,-0.000077,0.000000,0.200533,0.000609,498.734177,125.781125,0.605954,102.486411
0.060000,11.996414,102.980974,-0.000003,199.900194,49.456299,-0.000153,0.000000,0.200858,0.000909,498.481013,150.745073,0.605849,102.980974
0.070000,13.995268,103.474629,-0.000005,199.885435,49.365530,-0.000267,0.000000,0.201256,0.001268,498.227848,175.644929,0.605746,103.474629
0.080000,15.993981,103.967376,-0.000010,199.871223,49.274668,-0.000424,0.000000,0.201730,0.001683,497.974684,200.480692,0.605645,103.967376
0.090000,17.992556,104.459213,-0.000016,199.857561,49.183696,-0.000632,0.000000,0.202278,0.002154,497.721519,225.252363,0.605545,104.459213
0.100000,19.991001,104.950139,-0.000025,199.844453,49.092595,-0.000897,0.000000,0.202903,0.002680,497.468354,249.959942,0.605447,104.950139
0.110000,21.989320,105.440152,-0.000037,199.831903,49.001346,-0.001226,0.000000,0.203605,0.003261,497.215190,274.603429,0.605351,105.440152
0.120000,23.987519,105.929252,-0.000053,199.819915,48.909931,-0.001624,0.000000,0.204384,0.003895,496.962025,299.182823,0.605256,105.929252
0.130000,25.985604,106.417435,-0.000074,199.808493,48.818330,-0.002098,0.000000,0.205243,0.004581,496.708861,323.698125,0.605162,106.417435
0.140000,27.983580,106.904700,-0.000101,199.797641,48.726524,-0.002653,0.000000,0.206182,0.005319,496.455696,348.149335,0.605071,106.904700
0.150000,29.981454,107.391045,-0.000134,199.787362,48.634495,-0.003295,0.000000,0.207201,0.006107,496.202532,372.536452,0.604981,107.391045
0.160000,31.979230,107.876467,-0.000174,199.777661,48.542222,-0.004029,0.000000,0.208304,0.006944,495.949367,396.859478,0.604892,107.876467
0.170000,33.976916,108.360964,-0.000223,199.768542,48.449686,-0.004860,0.000000,0.209489,0.007831,495.696203,421.118411,0.604805,108.360964
0.180000,35.974516,108.844533,-0.000281,199.760008,48.356866,-0.005792,0.000000,0.210760,0.008764,495.443038,445.313251,0.604720,108.844533
0.190000,37.972037,109.327170,-0.000349,199.752064,48.263744,-0.006832,0.000000,0.212117,0.009744,495.189873,469.443999,0.604636,109.327170
0.200000,39.969484,109.808873,-0.000429,199.744713,48.170297,-0.007983,0.000000,0.213563,0.010770,494.936709,493.510655,0.604554,109.808873
0.210000,41.966863,110.289638,-0.000521,199.737960,48.076505,-0.009250,0.000000,0.215097,0.011840,494.683544,517.513219,0.604473,110.289638
0.220000,43.964181,110.769462,-0.000628,199.731808,47.982347,-0.010636,0.000000,0.216723,0.012953,494.430380,541.451690,0.604394,110.769462
0.230000,45.961444,111.248340,-0.000749,199.726261,47.887802,-0.012146,0.000000,0.218441,0.014109,494.177215,565.326070,0.604316,111.248340
0.240000,47.958657,111.726268,-0.000887,199.721324,47.792847,-0.013782,0.000000,0.220255,0.015306,493.924051,589.136356,0.604240,111.726268
0.250000,49.955827,112.203243,-0.001042,199.717000,47.697461,-0.015550,0.000000,0.222164,0.016543,493.670886,612.882551,0.604166,112.203243
0.260000,51.952960,112.679259,-0.001217,199.713293,47.601620,-0.017451,0.000000,0.224172,0.017819,493.417722,636.564653,0.604093,112.679259
0.270000,53.950062,113.154312,-0.001412,199.710207,47.505302,-0.019490,0.000000,0.226281,0.019133,493.164557,660.182663,0.604022,113.154312
0.280000,55.947140,113.628397,-0.001629,199.707746,47.408484,-0.021668,0.000000,0.228493,0.020484,492.911392,683.736581,0.603952,113.628397
0.290000,57.944199,114.101508,-0.001868,199.705914,47.311141,-0.023988,0.000000,0.230809,0.021871,492.658228,707.226406,0.603884,114.101508
0.300000,59.941246,114.573641,-0.002133,199.704714,47.213249,-0.026453,0.000000,0.233232,0.023292,492.405063,730.652139,0.603818,114.573641
0.310000,61.938287,115.044789,-0.002424,199.704151,47.114783,-0.029066,0.000000,0.235766,0.024747,492.151899,754.013780,0.603753,115.044789
0.320000,63.935330,115.514946,-0.002742,199.704228,47.015717,-0.031826,0.000000,0.238411,0.026234,491.898734,777.311328,0.603689,115.514946
0.330000,65.932379,115.984106,-0.003089,199.704948,46.916026,-0.034738,0.000000,0.241171,0.027753,491.645570,800.544784,0.603627,115.984106
0.340000,67.929442,116.452263,-0.003467,199.706316,46.815684,-0.037801,0.000000,0.244048,0.029302,491.392405,823.714148,0.603567,116.452263
0.350000,69.926526,116.919409,-0.003877,199.708334,46.714662,-0.041018,0.000000,0.247046,0.030880,491.139241,846.819420,0.603508,116.919409
0.360000,71.923636,117.385539,-0.004321,199.711006,46.612934,-0.044389,0.000000,0.250167,0.032485,490.886076,869.860599,0.603451,117.385539
0.370000,73.920779,117.850643,-0.004800,199.714336,46.510470,-0.047915,0.000000,0.253414,0.034118,490.632911,892.837686,0.603395,117.850643
0.380000,75.917962,118.314716,-0.005316,199.718326,46.407242,-0.051597,0.000000,0.256791,0.035776,490.379747,915.750681,0.603341,118.314716
0.390000,77.915192,118.777748,-0.005871,199.722980,46.303221,-0.055435,0.000000,0.260300,0.037459,490.126582,938.599583,0.603288,118.777748
0.400000,79.912475,119.239732,-0.006465,199.728299,46.198374,-0.059428,0.000000,0.263945,0.039165,489.873418,961.384394,0.603237,119.239732
0.410000,81.909818,119.700659,-0.007101,199.734288,46.092671,-0.063577,0.000000,0.267729,0.040893,489.620253,984.105111,0.603187,119.700659
0.420000,83.907228,120.160519,-0.007780,199.740948,45.986081,-0.067882,0.000000,0.271657,0.042643,489.367089,1006.761737,0.603139,120.160519
0.430000,85.904710,120.619305,-0.008503,199.748281,45.878569,-0.072341,0.000000,0.275731,0.044412,489.113924,1029.354270,0.603092,120.619305
0.440000,87.902273,121.077006,-0.009273,199.756289,45.770103,-0.076953,0.000000,0.279955,0.046200,488.860759,1051.882711,0.603047,121.077006
0.450000,89.899923,121.533613,-0.010090,199.764975,45.660647,-0.081717,0.000000,0.284335,0.048006,488.607595,1074.347060,0.603003,121.533613
0.460000,91.897666,121.989114,-0.010956,199.774339,45.550166,-0.086632,0.000000,0.288872,0.049829,488.354430,1096.747316,0.602961,121.989114
0.470000,93.895510,122.443500,-0.011873,199.784383,45.438624,-0.091695,0.000000,0.293573,0.051667,488.101266,1119.083480,0.602920,122.443500
0.480000,95.893461,122.896760,-0.012842,199.795107,45.325982,-0.096905,0.000000,0.298441,0.053519,487.848101,1141.355552,0.602880,122.896760
0.490000,97.891526,123.348882,-0.013865,199.806511,45.212203,-0.102258,0.000000,0.303481,0.055385,487.594937,1163.563531,0.602842,123.348882
0.500000,99.889712,123.799855,-0.014942,199.818596,45.097246,-0.107753,0.000000,0.308698,0.057263,487.341772,1185.707419,0.602805,123.799855
0.510000,101.888026,124.249665,-0.016076,199.831360,44.981071,-0.113385,0.000000,0.314096,0.059152,487.088608,1207.787214,0.602770,124.249665
0.520000,103.886474,124.698302,-0.017268,199.844803,44.863635,-0.119151,0.000000,0.319681,0.061051,486.835443,1229.802916,0.602736,124.698302
0.530000,105.885063,125.145751,-0.018518,199.858923,44.744897,-0.125048,0.000000,0.325457,0.062958,486.582278,1251.754527,0.602703,125.145751
0.540000,107.883800,125.591999,-0.019829,199.873718,44.624810,-0.131070,0.000000,0.331430,0.064874,486.329114,1273.642045,0.602671,125.591999
0.550000,109.882692,126.037032,-0.021201,199.889185,44.503330,-0.137214,0.000000,0.337606,0.066797,486.075949,1295.465470,0.602641,126.037032
0.560000,111.881745,126.480836,-0.022636,199.905320,44.380409,-0.143473,0.000000,0.343990,0.068725,485.822785,1317.224804,0.602612,126.480836
0.570000,113.880967,126.923396,-0.024134,199.922118,44.256000,-0.149843,0.000000,0.350588,0.070658,485.569620,1338.920045,0.602584,126.923396
0.580000,115.880362,127.364697,-0.025697,199.939576,44.130051,-0.156318,0.000000,0.357407,0.072594,485.316456,1360.551194,0.602557,127.364697
0.590000,117.879939,127.804722,-0.027326,199.957686,44.002512,-0.162890,0.000000,0.364451,0.074533,485.063291,1382.118250,0.602532,127.804722
0.600000,119.879704,128.243455,-0.029022,199.976441,43.873330,-0.169553,0.000000,0.371729,0.076474,484.810127,1403.621215,0.602507,128.243455
0.610000,121.879662,128.680880,-0.030785,199.995834,43.742449,-0.176299,0.000000,0.379247,0.078415,484.556962,1425.060087,0.602483,128.680880
0.620000,123.879821,129.116978,-0.032616,200.015856,43.609815,-0.183120,0.000000,0.387011,0.080356,484.303797,1446.434866,0.602460,129.116978
0.630000,125.880185,129.551732,-0.034516,200.036495,43.475369,-0.190007,0.000000,0.395029,0.082295,484.050633,1467.745554,0.602439,129.551732
0.640000,127.880763,129.985122,-0.036485,200.057741,43.339051,-0.196952,0.000000,0.403308,0.084232,483.797468,1488.992149,0.602418,129.985122
0.650000,129.881559,130.417130,-0.038525,200.079581,43.200800,-0.203943,0.000000,0.411855,0.086166,483.544304,1510.174651,0.602397,130.417130
0.660000,131.882579,130.847736,-0.040635,200.101999,43.060551,-0.210970,0.000000,0.420679,0.088096,483.291139,1531.293062,0.602378,130.847736
0.670000,133.883829,131.276918,-0.042815,200.124981,42.918241,-0.218022,0.000000,0.429788,0.090020,483.037975,1552.347380,0.602359,131.276918
0.680000,135.885314,131.704656,-0.045066,200.148507,42.773800,-0.225085,0.000000,0.439189,0.091938,482.784810,1573.337606,0.602341,131.704656
0.690000,137.887039,132.130928,-0.047387,200.172560,42.627159,-0.232148,0.000000,0.448892,0.093849,482.531646,1594.263740,0.602323,132.130928
0.700000,139.889010,132.555710,-0.049779,200.197116,42.478247,-0.239195,0.000000,0.458905,0.095752,482.278481,1615.125781,0.602305,132.555710
0.710000,141.891232,132.978980,-0.052241,200.222153,42.326989,-0.246213,0.000000,0.469237,0.097646,482.025316,1635.923730,0.602288,132.978980
0.720000,143.893708,133.400713,-0.054773,200.247644,42.173308,-0.253183,0.000000,0.479898,0.099530,481.772152,1656.657587,0.602271,133.400713
0.730000,145.896444,133.820884,-0.057374,200.273562,42.017125,-0.260090,0.000000,0.490898,0.101404,481.518987,1677.327351,0.602254,133.820884
0.740000,147.899443,134.239468,-0.060043,200.299876,41.858359,-0.266915,0.000000,0.502246,0.103267,481.265823,1697.933024,0.602237,134.239468
0.750000,149.902708,134.656437,-0.062779,200.326551,41.696926,-0.273637,0.000000,0.513954,0.105117,481.012658,1718.474603,0.602220,134.656437
0.760000,151.906244,135.071764,-0.065582,200.353552,41.532738,-0.280236,0.000000,0.526030,0.106954,480.759494,1738.952091,0.602202,135.071764
0.770000,153.910052,135.485422,-0.068449,200.380838,41.365705,-0.286689,0.000000,0.538488,0.108778,480.506329,1759.365486,0.602184,135.485422
0.780000,155.914136,135.897379,-0.071378,200.408367,41.195735,-0.292971,0.000000,0.551337,0.110587,480.253165,1779.714789,0.602165,135.897379
0.790000,157.918497,136.307606,-0.074369,200.436093,41.022732,-0.299057,0.000000,0.564589,0.112380,480.000000,1800.000000,0.602146,136.307606
0.800000,159.923136,136.716072,-0.077418,200.463964,40.846598,-0.304918,0.000000,0.578258,0.114158,479.746835,1820.221118,0.602125,136.716072
0.810000,161.928056,137.122744,-0.080523,200.491926,40.667229,-0.310524,0.000000,0.592354,0.115918,479.493671,1840.378145,0.602103,137.122744
0.820000,163.933255,137.527590,-0.083682,200.519921,40.484521,-0.315843,0.000000,0.606891,0.117662,479.240506,1860.471078,0.602080,137.527590
0.830000,165.938734,137.930573,-0.086890,200.547885,40.298365,-0.320839,0.000000,0.621882,0.119386,478.987342,1880.499920,0.602055,137.930573
0.840000,167.944491,138.331660,-0.090145,200.575749,40.108649,-0.325476,0.000000,0.637340,0.121092,478.734177,1900.464669,0.602029,138.331660
0.850000,169.950526,138.730812,-0.093442,200.603439,39.915257,-0.329712,0.000000,0.653280,0.122779,478.481013,1920.365326,0.602000,138.730812
0.860000,171.956834,139.127993,-0.096777,200.630878,39.718069,-0.333503,0.000000,0.669716,0.124445,478.227848,1940.201891,0.601969,139.127993
0.870000,173.963414,139.523163,-0.100145,200.657978,39.516961,-0.336803,0.000000,0.686663,0.126091,477.974684,1959.974363,0.601935,139.523163
0.880000,175.970261,139.916281,-0.103541,200.684648,39.311808,-0.339559,0.000000,0.704136,0.127715,477.721519,1979.682743,0.601899,139.916281
0.890000,177.977368,140.307306,-0.106958,200.710790,39.102478,-0.341715,0.000000,0.722151,0.129317,477.468354,1999.327031,0.601859,140.307306
0.900000,179.984731,140.696194,-0.110390,200.736299,38.888835,-0.343212,0.000000,0.740724,0.130897,477.215190,2018.907226,0.601815,140.696194
0.910000,181.992342,141.082901,-0.113830,200.761061,38.670742,-0.343983,0.000000,0.759873,0.132453,476.962025,2038.423330,0.601768,141.082901
0.920000,184.000192,141.467382,-0.117269,200.784954,38.448054,-0.343956,0.000000,0.779614,0.133986,476.708861,2057.875340,0.601716,141.467382
0.930000,186.008270,141.849588,-0.120700,200.807849,38.220626,-0.343051,0.000000,0.799965,0.135495,476.455696,2077.263259,0.601659,141.849588
0.940000,188.016566,142.229471,-0.124112,200.829606,37.988307,-0.341182,0.000000,0.820944,0.136979,476.202532,2096.587085,0.601597,142.229471
0.950000,190.025067,142.606981,-0.127494,200.850077,37.750943,-0.338254,0.000000,0.842571,0.138438,475.949367,2115.846819,0.601529,142.606981
0.960000,192.033758,142.982064,-0.130836,200.869102,37.508376,-0.334161,0.000000,0.864865,0.139871,475.696203,2135.042461,0.601455,142.982064
0.970000,194.042623,143.354669,-0.134124,200.886512,37.260445,-0.328787,0.000000,0.887846,0.141279,475.443038,2154.174011,0.601375,143.354669
0.980000,196.051644,143.724739,-0.137344,200.902124,37.006988,-0.322003,0.000000,0.911535,0.142660,475.189873,2173.241468,0.601287,143.724739
0.990000,198.060802,144.092217,-0.140480,200.915745,36.747838,-0.313665,0.000000,0.935953,0.144014,474.936709,2192.244833,0.601191,144.092217
1.000000,200.070073,144.457045,-0.143517,200.927168,36.482831,-0.303611,0.000000,0.961121,0.145341,474.683544,2211.184105,0.601087,144.457045
1.010000,202.079435,144.819163,-0.146433,200.936173,36.211800,-0.291660,0.000000,0.987063,0.146640,474.430380,2230.059285,0.600973,144.819163
1.020000,204.088860,145.178509,-0.149209,200.942524,35.934581,-0.277607,0.000000,1.013801,0.147912,474.177215,2248.870373,0.600850,145.178509
1.030000,206.098320,145.535019,-0.151821,200.945971,35.651014,-0.261219,0.000000,1.041360,0.149156,473.924051,2267.617369,0.600716,145.535019
1.040000,208.107783,145.888629,-0.154244,200.946247,35.360948,-0.242230,0.000000,1.069764,0.150371,473.670886,2286.300272,0.600570,145.888629
1.050000,210.117213,146.239271,-0.156447,200.943068,35.064241,-0.220334,0.000000,1.099039,0.151557,473.417722,2304.919083,0.600413,146.239271
1.060000,212.126575,146.586879,-0.158399,200.936132,34.760770,-0.195176,0.000000,1.129210,0.152714,473.164557,2323.473802,0.600242,146.586879
1.070000,214.135826,146.931383,-0.160062,200.925115,34.450436,-0.166342,0.000000,1.160304,0.153842,472.911392,2341.964429,0.600057,146.931383
1.080000,216.144923,147.272715,-0.161396,200.909675,34.133180,-0.133346,0.000000,1.192349,0.154941,472.658228,2360.390963,0.599858,147.272715
1.090000,218.153817,147.610805,-0.162352,200.889443,33.808993,-0.095607,0.000000,1.225373,0.156010,472.405063,2378.753405,0.599642,147.610805
1.100000,220.162457,147.945584,-0.162876,200.864027,33.477947,-0.052431,0.000000,1.259405,0.157049,472.151899,2397.051755,0.599410,147.945584
1.110000,222.170787,148.276987,-0.162906,200.833005,33.140227,-0.002974,0.000000,1.294475,0.158058,471.898734,2415.286012,0.599159,148.276987
1.120000,224.178746,148.604949,-0.162368,200.795919,32.796186,0.053798,0.000000,1.330615,0.159036,471.645570,2433.456177,0.598889,148.604949
1.130000,226.186269,148.929413,-0.161176,200.752270,32.446435,0.119172,0.000000,1.367854,0.159985,471.392405,2451.562250,0.598600,148.929413
1.140000,228.193284,149.250333,-0.159229,200.701501,32.091978,0.194759,0.000000,1.406227,0.160903,471.139241,2469.604230,0.598289,149.250333
1.150000,230.199714,149.567677,-0.156402,200.642980,31.734449,0.282604,0.000000,1.445766,0.161791,470.886076,2487.582118,0.597956,149.567677
1.160000,232.205474,149.881442,-0.152549,200.575955,31.376501,0.385299,0.000000,1.486506,0.162648,470.632911,2505.495914,0.597600,149.881442
1.170000,234.210468,150.191667,-0.147489,200.499484,31.022511,0.506093,0.000000,1.528481,0.163475,470.379747,2523.345618,0.597220,150.191667
1.180000,236.214591,150.498465,-0.141000,200.412299,30.679808,0.648846,0.000000,1.571728,0.164271,470.126582,2541.131229,0.596816,150.498465
1.190000,238.217717,150.802073,-0.132826,200.312569,30.360805,0.817408,0.000000,1.616283,0.165036,469.873418,2558.852748,0.596389,150.802073
1.200000,240.219692,151.102934,-0.122693,200.197530,30.086087,1.013277,0.000000,1.662184,0.165771,469.620253,2576.510175,0.595938,151.102934
1.210000,242.220325,151.401799,-0.110398,200.063238,29.886430,1.229566,0.000000,1.709469,0.166475,469.367089,2594.103509,0.595465,151.401799
1.220000,244.219378,151.699757,-0.095972,199.905372,29.795870,1.442509,0.000000,1.758178,0.167149,469.113924,2611.632751,0.594973,151.699757
1.230000,246.216637,151.998045,-0.079595,199.725811,29.828780,1.637778,0.000000,1.808315,0.167792,468.860759,2629.097901,0.594470,151.998045
1.240000,248.211921,152.297685,-0.061707,199.528410,29.964000,1.788759,0.000000,1.859876,0.168405,468.607595,2646.498959,0.593961,152.297685
1.250000,250.205101,152.599373,-0.042849,199.318007,30.168736,1.885858,0.000000,1.912862,0.168988,468.354430,2663.835924,0.593443,152.599373
1.260000,252.196085,152.903537,-0.023514,199.098386,30.416463,1.933440,0.000000,1.967270,0.169540,468.101266,2681.108797,0.592916,152.903537
1.270000,254.184804,153.210438,-0.004115,198.871897,30.690111,1.939960,0.000000,2.023098,0.170063,467.848101,2698.317577,0.592382,153.210438
1.280000,256.171203,153.520232,0.015020,198.639905,30.979380,1.913424,0.000000,2.080344,0.170555,467.594937,2715.462266,0.591839,153.520232
1.290000,258.155235,153.833012,0.033622,198.403200,31.278018,1.860264,0.000000,2.139006,0.171018,467.341772,2732.542862,0.591287,153.833012
1.300000,260.136857,154.148833,0.051476,198.162263,31.582091,1.785399,0.000000,2.199083,0.171451,467.088608,2749.559365,0.590727,154.148833
1.310000,262.116031,154.467723,0.068402,197.917408,31.889001,1.692547,0.000000,2.260572,0.171855,466.835443,2766.511777,0.590158,154.467723
1.320000,264.092720,154.789693,0.084247,197.668857,32.196948,1.584541,0.000000,2.323471,0.172230,466.582278,2783.400096,0.589581,154.789693
1.330000,266.066888,155.114739,0.098883,197.416796,32.504613,1.463553,0.000000,2.387778,0.172576,466.329114,2800.224323,0.588994,155.114739
1.340000,268.038502,155.442849,0.112196,197.161392,32.810984,1.331276,0.000000,2.453490,0.172892,466.075949,2816.984458,0.588399,155.442849
1.350000,270.007530,155.774001,0.124086,196.902816,33.115248,1.189044,0.000000,2.520605,0.173181,465.822785,2833.680500,0.587796,155.774001
1.360000,271.973942,156.108168,0.134465,196.641253,33.416722,1.037918,0.000000,2.589120,0.173441,465.569620,2850.312450,0.587184,156.108168
1.370000,273.937712,156.445316,0.143253,196.376909,33.714813,0.878752,0.000000,2.659033,0.173673,465.316456,2866.880308,0.586565,156.445316
1.380000,275.898812,156.785406,0.150375,196.110024,34.008993,0.712239,0.000000,2.730342,0.173877,465.063291,2883.384073,0.585938,156.785406
1.390000,277.857221,157.128394,0.155764,195.840873,34.298771,0.538944,0.000000,2.803042,0.174054,464.810127,2899.823746,0.585305,157.128394
1.400000,279.812918,157.474231,0.159358,195.569781,34.583684,0.359325,0.000000,2.877131,0.174203,464.556962,2916.199327,0.584665,157.474231
1.410000,281.765890,157.822864,0.161095,195.297137,34.863276,0.173759,0.000000,2.952606,0.174326,464.303797,2932.510816,0.584021,157.822864
1.420000,283.716124,158.174234,0.160921,195.023429,35.137065,-0.017453,0.000000,3.029461,0.174422,464.050633,2948.758212,0.583372,158.174234
1.430000,285.663617,158.528279,0.158780,194.749314,35.404489,-0.214069,0.000000,3.107692,0.174492,463.797468,2964.941516,0.582721,158.528279
1.440000,287.608375,158.884926,0.154621,194.475820,35.664724,-0.415898,0.000000,3.187291,0.174535,463.544304,2981.060727,0.582069,158.884926
1.450000,289.550427,159.244087,0.148393,194.205132,35.916025,-0.622774,0.000000,3.268032,0.174554,463.291139,2997.115847,0.581424,159.244087
1.460000,291.489892,159.605592,0.140050,193.946488,36.150558,-0.834362,0.000000,3.349872,0.174547,463.037975,3013.106874,0.580806,159.605592
1.470000,293.428366,159.962421,0.129798,193.847465,35.682858,-1.025163,0.000000,3.430526,0.174515,462.784810,3029.033809,0.580273,159.962421
1.480000,295.365582,160.313991,0.117718,193.721533,35.157000,-1.208038,0.000000,3.509841,0.174458,462.531646,3044.896651,0.579636,160.313991
1.490000,297.301507,160.660203,0.103875,193.592566,34.621180,-1.384324,0.000000,3.587802,0.174377,462.278481,3060.695401,0.578988,160.660203
1.500000,299.236137,161.000998,0.088335,193.462978,34.079526,-1.553973,0.000000,3.664405,0.174273,462.025316,3076.430059,0.578340,161.000998
1.510000,301.169474,161.336333,0.071167,193.333707,33.533481,-1.716793,0.000000,3.739648,0.174145,461.772152,3092.100625,0.577694,161.336333
1.520000,303.101527,161.666171,0.052442,193.205310,32.983871,-1.872504,0.000000,3.813531,0.173994,461.518987,3107.707098,0.577054,161.666171
1.530000,305.032309,161.990485,0.032234,193.078191,32.431331,-2.020744,0.000000,3.886057,0.173820,461.265823,3123.249479,0.576420,161.990485
1.540000,306.961836,162.309249,0.010624,192.952667,31.876431,-2.161060,0.000000,3.957225,0.173624,461.012658,3138.727768,0.575793,162.309249
1.550000,308.890126,162.622446,-0.012305,192.828990,31.319743,-2.292891,0.000000,4.027037,0.173406,460.759494,3154.141964,0.575175,162.622446
1.560000,310.817199,162.930065,-0.036461,192.707365,30.761876,-2.415548,0.000000,4.095496,0.173167,460.506329,3169.492069,0.574567,162.930065
1.570000,312.743079,163.232100,-0.061742,192.587952,30.203504,-2.528179,0.000000,4.162602,0.172906,460.253165,3184.778080,0.573969,163.232100
1.580000,314.667787,163.528554,-0.088040,192.470864,29.645410,-2.629729,0.000000,4.228358,0.172625,460.000000,3200.000000,0.573382,163.528554
1.590000,316.591349,163.819440,-0.115228,192.356169,29.088537,-2.718879,0.000000,4.292764,0.172324,459.746835,3215.157827,0.572807,163.819440
1.600000,318.513788,164.104780,-0.143168,192.243881,28.534065,-2.793966,0.000000,4.355824,0.172003,459.493671,3230.251562,0.572243,164.104780
1.610000,320.435127,164.384616,-0.171697,192.133946,27.983538,-2.852874,0.000000,4.417539,0.171662,459.240506,3245.281205,0.571691,164.384616
1.620000,322.355390,164.659006,-0.200626,192.026223,27.439069,-2.892886,0.000000,4.477910,0.171303,458.987342,3260.246755,0.571152,164.659006
1.630000,324.274594,164.928043,-0.229731,191.920444,26.903681,-2.910504,0.000000,4.536939,0.170925,458.734177,3275.148213,0.570625,164.928043
1.640000,326.192756,165.191862,-0.258743,191.816144,26.381888,-2.901244,0.000000,4.594629,0.170529,458.481013,3289.985579,0.570111,165.191862
1.650000,328.109881,165.450669,-0.287339,191.712540,25.880689,-2.859535,0.000000,4.650995,0.170115,458.227848,3304.758853,0.569610,165.450669
1.660000,330.025964,165.704781,-0.315129,191.608326,25.411179,-2.779058,0.000000,4.706058,0.169684,457.974684,3319.468034,0.569120,165.704781
1.670000,331.940978,165.954688,-0.341674,191.501393,24.990682,-2.654527,0.000000,4.759836,0.169236,457.721519,3334.113123,0.568643,165.954688
1.680000,333.854865,166.201124,-0.366540,191.388674,24.643670,-2.486591,0.000000,4.812346,0.168772,457.468354,3348.694120,0.568178,166.201124
1.690000,335.767533,166.445085,-0.389436,191.266806,24.396030,-2.289541,0.000000,4.863607,0.168292,457.215190,3363.211024,0.567724,166.445085
1.700000,337.678889,166.687676,-0.410287,191.135656,24.259104,-2.085150,0.000000,4.913647,0.167797,456.962025,3377.663836,0.567285,166.687676
1.710000,339.588893,166.929830,-0.429169,191.000331,24.215398,-1.888216,0.000000,4.962522,0.167286,456.708861,3392.052556,0.566869,166.929830
1.720000,341.497542,167.172177,-0.446319,190.864957,24.234741,-1.714919,0.000000,5.010287,0.166761,456.455696,3406.377183,0.566477,167.172177
1.730000,343.404875,167.415092,-0.462006,190.733260,24.291530,-1.568722,0.000000,5.056996,0.166221,456.202532,3420.637718,0.566112,167.415092
1.740000,345.310953,167.658779,-0.476477,190.607757,24.368694,-1.447155,0.000000,5.102700,0.165668,455.949367,3434.834161,0.565773,167.658779
1.750000,347.215852,167.903338,-0.489940,190.489928,24.455829,-1.346240,0.000000,5.147452,0.165102,455.696203,3448.966512,0.565461,167.903338
1.760000,349.119657,168.148805,-0.502562,190.380559,24.546720,-1.262199,0.000000,5.191303,0.164523,455.443038,3463.034770,0.565175,168.148805
1.770000,351.022458,168.395181,-0.514481,190.280016,24.637626,-1.191895,0.000000,5.234303,0.163931,455.189873,3477.038936,0.564916,168.395181
1.780000,352.924342,168.642444,-0.525809,190.188407,24.726262,-1.132833,0.000000,5.276486,0.163327,454.936709,3490.979010,0.564683,168.642444
1.790000,354.825398,168.890556,-0.536640,190.105682,24.811212,-1.083049,0.000000,5.317884,0.162712,454.683544,3504.854991,0.564474,168.890556
1.800000,356.725715,169.139472,-0.547049,190.031692,24.891596,-1.040991,0.000000,5.358529,0.162086,454.430380,3518.666880,0.564290,169.139472
1.810000,358.625378,169.389140,-0.557104,189.966230,24.966868,-1.005428,0.000000,5.398453,0.161449,454.177215,3532.414677,0.564129,169.389140
1.820000,360.524468,169.639507,-0.566857,189.909052,25.036700,-0.975369,0.000000,5.437686,0.160802,453.924051,3546.098382,0.563990,169.639507
1.830000,362.423067,169.890516,-0.576358,189.859891,25.100901,-0.950011,0.000000,5.476260,0.160145,453.670886,3559.717994,0.563872,169.890516
1.840000,364.321252,170.142110,-0.585644,189.818467,25.159377,-0.928693,0.000000,5.514202,0.159479,453.417722,3573.273514,0.563775,170.142110
1.850000,366.219097,170.394231,-0.594753,189.784498,25.212093,-0.910870,0.000000,5.551544,0.158804,453.164557,3586.764942,0.563698,170.394231
1.860000,368.116674,170.646822,-0.603714,189.757697,25.259057,-0.896086,0.000000,5.588313,0.158120,452.911392,3600.192277,0.563639,170.646822
1.870000,370.014052,170.899825,-0.612554,189.737780,25.300304,-0.883955,0.000000,5.624537,0.157428,452.658228,3613.555520,0.563599,170.899825
1.880000,371.911296,171.153184,-0.621295,189.724467,25.335885,-0.874148,0.000000,5.660246,0.156729,452.405063,3626.854671,0.563575,171.153184
1.890000,373.808471,171.406842,-0.629959,189.717480,25.365864,-0.866387,0.000000,5.695465,0.156023,452.151899,3640.089729,0.563568,171.406842
1.900000,375.705636,171.660745,-0.638563,189.716548,25.390308,-0.860427,0.000000,5.730223,0.155309,451.898734,3653.260695,0.563576,171.660745
1.910000,377.602851,171.914838,-0.647124,189.721406,25.409289,-0.856059,0.000000,5.764545,0.154590,451.645570,3666.367569,0.563600,171.914838
1.920000,379.500168,172.169067,-0.655655,189.731795,25.422879,-0.853098,0.000000,5.798460,0.153864,451.392405,3679.410351,0.563637,172.169067
1.930000,381.397643,172.423379,-0.664169,189.747461,25.431147,-0.851384,0.000000,5.831992,0.153133,451.139241,3692.389040,0.563687,172.423379
1.940000,383.295325,172.677720,-0.672676,189.768155,25.434159,-0.850772,0.000000,5.865168,0.152397,450.886076,3705.303637,0.563750,172.677720
1.950000,385.193261,172.932040,-0.681188,189.793637,25.431978,-0.851136,0.000000,5.898014,0.151657,450.632911,3718.154142,0.563826,172.932040
1.960000,387.091498,173.186287,-0.689711,189.823669,25.424662,-0.852363,0.000000,5.930555,0.150912,450.379747,3730.940554,0.563912,173.186287
1.970000,388.990078,173.440409,-0.698255,189.858019,25.412264,-0.854351,0.000000,5.962816,0.150163,450.126582,3743.662875,0.564009,173.440409
1.980000,390.889042,173.694357,-0.706825,189.896460,25.394832,-0.857007,0.000000,5.994823,0.149411,449.873418,3756.321102,0.564116,173.694357
1.990000,392.788430,173.948082,-0.715427,189.938770,25.372408,-0.860248,0.000000,6.026601,0.148656,449.620253,3768.915238,0.564233,173.948082
2.000000,394.688277,174.201532,-0.724067,189.984729,25.345028,-0.863998,0.000000,6.058174,0.147898,449.367089,3781.445281,0.564358,174.201532
2.010000,396.588619,174.454659,-0.732749,190.034123,25.312721,-0.868188,0.000000,6.089568,0.147139,449.113924,3793.911232,0.564491,174.454659
2.020000,398.489486,174.707414,-0.741477,190.086738,25.275512,-0.872754,0.000000,6.120807,0.146377,448.860759,3806.313091,0.564632,174.707414
2.030000,400.390910,174.959748,-0.750253,190.142364,25.233418,-0.877635,0.000000,6.151915,0.145614,448.607595,3818.650857,0.564779,174.959748
2.040000,402.292918,175.211613,-0.759081,190.200792,25.186452,-0.882776,0.000000,6.182919,0.144850,448.354430,3830.924531,0.564933,175.211613
2.050000,404.195536,175.462959,-0.767962,190.261817,25.134618,-0.888126,0.000000,6.213841,0.144086,448.101266,3843.134113,0.565093,175.462959
2.060000,406.098788,175.713738,-0.776898,190.325231,25.077916,-0.893635,0.000000,6.244707,0.143321,447.848101,3855.279603,0.565258,175.713738
2.070000,408.002696,175.963902,-0.785891,190.390830,25.016338,-0.899256,0.000000,6.275542,0.142557,447.594937,3867.361000,0.565428,175.963902
2.080000,409.907281,176.213400,-0.794941,190.458408,24.949871,-0.904946,0.000000,6.306370,0.141793,447.341772,3879.378305,0.565601,176.213400
2.090000,411.812558,176.462185,-0.804047,190.527757,24.878494,-0.910661,0.000000,6.337217,0.141030,447.088608,3891.331517,0.565778,176.462185
2.100000,413.718545,176.710207,-0.813211,190.598670,24.802181,-0.916359,0.000000,6.368106,0.140269,446.835443,3903.220638,0.565958,176.710207
2.110000,415.625254,176.957416,-0.822431,190.670937,24.720898,-0.921999,0.000000,6.399063,0.139509,446.582278,3915.045666,0.566140,176.957416
2.120000,417.532698,177.203762,-0.831706,190.744346,24.634605,-0.927541,0.000000,6.430114,0.138751,446.329114,3926.806602,0.566323,177.203762
2.130000,419.440884,177.449195,-0.841036,190.818681,24.543256,-0.932946,0.000000,6.461283,0.137996,446.075949,3938.503445,0.566507,177.449195
2.140000,421.349822,177.693663,-0.850417,190.893724,24.446797,-0.938172,0.000000,6.492596,0.137244,445.822785,3950.136196,0.566692,177.693663
2.150000,423.259514,177.937114,-0.859849,190.969249,24.345167,-0.943179,0.000000,6.524078,0.136494,445.569620,3961.704855,0.566876,177.937114
2.160000,425.169964,178.179497,-0.869328,191.045030,24.238299,-0.947926,0.000000,6.555757,0.135749,445.316456,3973.209422,0.567060,178.179497
2.170000,427.081173,178.420758,-0.878852,191.120831,24.126118,-0.952369,0.000000,6.587657,0.135007,445.063291,3984.649896,0.567241,178.420758
2.180000,428.993137,178.660844,-0.888417,191.196412,24.008540,-0.956465,0.000000,6.619805,0.134269,444.810127,3996.026278,0.567420,178.660844
2.190000,430.905852,178.899699,-0.898018,191.271524,23.885476,-0.960168,0.000000,6.652228,0.133536,444.556962,4007.338568,0.567596,178.899699
2.200000,432.819311,179.137267,-0.907653,191.345911,23.756829,-0.963429,0.000000,6.684953,0.132808,444.303797,4018.586765,0.567769,179.137267
2.210000,434.733504,179.373492,-0.917315,191.419310,23.622491,-0.966196,0.000000,6.718007,0.132085,444.050633,4029.770870,0.567936,179.373492
2.220000,436.648419,179.608315,-0.926999,191.491447,23.482349,-0.968414,0.000000,6.751417,0.131368,443.797468,4040.890883,0.568098,179.608315
2.230000,438.564039,179.841678,-0.936699,191.562037,23.336282,-0.970025,0.000000,6.785213,0.130656,443.544304,4051.946803,0.568254,179.841678
2.240000,440.480347,180.073520,-0.946409,191.630785,23.184158,-0.970963,0.000000,6.819422,0.129950,443.291139,4062.938632,0.568402,180.073520
2.250000,442.397321,180.303778,-0.956120,191.697385,23.025837,-0.971160,0.000000,6.854072,0.129251,443.037975,4073.866368,0.568543,180.303778
2.260000,444.314936,180.532390,-0.965826,191.761517,22.861172,-0.970538,0.000000,6.889194,0.128559,442.784810,4084.730011,0.568674,180.532390
2.270000,446.233164,180.759290,-0.975516,191.822848,22.690007,-0.969014,0.000000,6.924817,0.127874,442.531646,4095.529563,0.568795,180.759290
2.280000,448.151975,180.984412,-0.985181,191.881032,22.512174,-0.966492,0.000000,6.960972,0.127196,442.278481,4106.265022,0.568906,180.984412
2.290000,450.071332,181.207687,-0.994809,191.935707,22.327499,-0.962869,0.000000,6.997688,0.126525,442.025316,4116.936388,0.569004,181.207687
2.300000,451.991197,181.429045,-1.004390,191.986493,22.135800,-0.958024,0.000000,7.034997,0.125862,441.772152,4127.543663,0.569089,181.429045
2.310000,453.911527,181.648413,-1.013908,192.032995,21.936885,-0.951825,0.000000,7.072930,0.125208,441.518987,4138.086845,0.569159,181.648413
2.320000,455.832275,181.865719,-1.023349,192.074802,21.730555,-0.944117,0.000000,7.111521,0.124562,441.265823,4148.565935,0.569214,181.865719
2.330000,457.753390,182.080885,-1.032696,192.111480,21.516606,-0.934722,0.000000,7.150802,0.123924,441.012658,4158.980933,0.569252,182.080885
2.340000,459.674815,182.293833,-1.041931,192.142579,21.294826,-0.923436,0.000000,7.190806,0.123295,440.759494,4169.331838,0.569272,182.293833
2.350000,461.596492,182.504483,-1.051031,192.167627,21.065004,-0.910017,0.000000,7.231567,0.122676,440.506329,4179.618651,0.569273,182.504483
2.360000,463.518353,182.712753,-1.059973,192.186132,20.826928,-0.894179,0.000000,7.273121,0.122065,440.253165,4189.841372,0.569252,182.712753
2.370000,465.440329,182.918557,-1.068728,192.197581,20.580393,-0.875579,0.000000,7.315501,0.121465,440.000000,4200.000000,0.569209,182.918557
2.380000,467.362343,183.121809,-1.077266,192.201435,20.325209,-0.853802,0.000000,7.358746,0.120873,439.746835,4210.094536,0.569142,183.121809
2.390000,469.284314,183.322421,-1.085550,192.197135,20.061213,-0.828335,0.000000,7.402891,0.120292,439.493671,4220.124980,0.569049,183.322421
2.400000,471.206155,183.520304,-1.093535,192.184098,19.788291,-0.798540,0.000000,7.447973,0.119721,439.240506,4230.091332,0.568929,183.520304
2.410000,473.127773,183.715368,-1.101171,192.161715,19.506406,-0.763601,0.000000,7.494031,0.119160,438.987342,4239.993591,0.568779,183.715368
2.420000,475.049066,183.907524,-1.108396,192.129352,19.215657,-0.722461,0.000000,7.541104,0.118610,438.734177,4249.831758,0.568600,183.907524
2.430000,476.969930,184.096688,-1.115133,192.086346,18.916371,-0.673709,0.000000,7.589232,0.118070,438.481013,4259.605832,0.568387,184.096688
2.440000,478.890250,184.282781,-1.121287,192.032001,18.609276,-0.615420,0.000000,7.638454,0.117542,438.227848,4269.315815,0.568141,184.282781
2.450000,480.809905,184.465739,-1.126736,191.965578,18.295845,-0.544879,0.000000,7.688813,0.117024,437.974684,4278.961705,0.567858,184.465739
2.460000,482.728768,184.645529,-1.131317,191.886263,17.979008,-0.458153,0.000000,7.740349,0.116517,437.721519,4288.543503,0.567538,184.645529
2.470000,484.646699,184.822177,-1.134812,191.793089,17.664778,-0.349425,0.000000,7.793106,0.116021,437.468354,4298.061208,0.567180,184.822177
2.480000,486.563546,184.995839,-1.136915,191.684722,17.366240,-0.210330,0.000000,7.847128,0.115537,437.215190,4307.514821,0.566783,184.995839
2.490000,488.479134,185.166974,-1.137231,191.558831,17.113473,-0.031642,0.000000,7.902458,0.115064,436.962025,4316.904342,0.566348,185.166974
2.500000,490.393243,185.336684,-1.135427,191.410856,16.970983,0.180390,0.000000,7.959142,0.114603,436.708861,4326.229771,0.565878,185.336684
2.510000,492.305614,185.506840,-1.131627,191.237064,17.015609,0.380005,0.000000,8.017206,0.114153,436.455696,4335.491107,0.565381,185.506840
2.520000,494.216043,185.679061,-1.126482,191.042918,17.222074,0.514523,0.000000,8.076651,0.113716,436.202532,4344.688351,0.564868,185.679061
2.530000,496.124395,185.854181,-1.120782,190.835190,17.511970,0.570006,0.000000,8.137473,0.113290,435.949367,4353.821503,0.564338,185.854181
2.540000,498.030572,186.032572,-1.115120,190.617762,17.839159,0.566256,0.000000,8.199671,0.112876,435.696203,4362.890562,0.563790,186.032572
2.550000,499.934495,186.214404,-1.109906,190.392288,18.183201,0.521345,0.000000,8.263243,0.112474,435.443038,4371.895530,0.563226,186.214404
2.560000,501.836090,186.399751,-1.105434,190.159503,18.534703,0.447226,0.000000,8.328187,0.112084,435.189873,4380.836404,0.562643,186.399751
2.570000,503.735288,186.588640,-1.101918,189.919787,18.888836,0.351558,0.000000,8.394500,0.111706,434.936709,4389.713187,0.562044,186.588640
2.580000,505.632022,186.781067,-1.099524,189.673391,19.242794,0.239380,0.000000,8.462181,0.111340,434.683544,4398.525877,0.561426,186.781067
2.590000,507.526227,186.977015,-1.098383,189.420530,19.594749,0.114124,0.000000,8.531227,0.110986,434.430380,4407.274475,0.560792,186.977015
2.600000,509.417842,187.176449,-1.098601,189.161420,19.943380,-0.021787,0.000000,8.601636,0.110645,434.177215,4415.958981,0.560141,187.176449
2.610000,511.306805,187.379325,-1.100267,188.896306,20.287648,-0.166590,0.000000,8.673404,0.110315,433.924051,4424.579394,0.559474,187.379325
2.620000,513.193059,187.585592,-1.103457,188.625472,20.626681,-0.318967,0.000000,8.746529,0.109998,433.670886,4433.135715,0.558790,187.585592
2.630000,515.076552,187.795189,-1.108236,188.349250,20.959711,-0.477913,0.000000,8.821009,0.109693,433.417722,4441.627944,0.558091,187.795189
2.640000,516.957232,188.008050,-1.114662,188.068025,21.286042,-0.642642,0.000000,8.896839,0.109401,433.164557,4450.056081,0.557378,188.008050
2.650000,518.835054,188.224100,-1.122788,187.782243,21.605024,-0.812535,0.000000,8.974017,0.109120,432.911392,4458.420125,0.556652,188.224100
2.660000,520.709979,188.443260,-1.132659,187.492423,21.916041,-0.987100,0.000000,9.052540,0.108852,432.658228,4466.720077,0.555914,188.443260
2.670000,522.581970,188.665445,-1.144318,187.199160,22.218500,-1.165937,0.000000,9.132402,0.108596,432.405063,4474.955937,0.555164,188.665445
2.680000,524.451002,188.890563,-1.157805,186.903156,22.511804,-1.348731,0.000000,9.213600,0.108352,432.151899,4483.127704,0.554407,188.890563
2.690000,526.317055,189.118516,-1.173157,186.605268,22.795311,-1.535226,0.000000,9.296128,0.108120,431.898734,4491.235379,0.553642,189.118516
2.700000,528.180121,189.349198,-1.190410,186.306639,23.068205,-1.725226,0.000000,9.379980,0.107900,431.645570,4499.278962,0.552873,189.349198
2.710000,530.040213,189.582489,-1.209596,186.009171,23.329053,-1.918582,0.000000,9.465144,0.107693,431.392405,4507.258452,0.552106,189.582489
2.720000,531.897396,189.818220,-1.230747,185.718295,23.573106,-2.115182,0.000000,9.551388,0.107497,431.139241,4515.173850,0.551354,189.818220
2.730000,533.753564,190.053055,-1.253866,185.616858,23.483468,-2.311866,0.000000,9.637604,0.107313,430.886076,4523.025156,0.551033,190.053055
2.740000,535.607768,190.282829,-1.278840,185.420357,22.977410,-2.497412,0.000000,9.722539,0.107142,430.632911,4530.812370,0.550282,190.282829
2.750000,537.459967,190.507385,-1.305621,185.219918,22.455571,-2.678049,0.000000,9.806170,0.106982,430.379747,4538.535491,0.549518,190.507385
2.760000,539.310164,190.726625,-1.334158,185.019665,21.924000,-2.853719,0.000000,9.888493,0.106833,430.126582,4546.194520,0.548755,190.726625
2.770000,541.158374,190.940470,-1.364400,184.821082,21.384508,-3.024227,0.000000,9.969506,0.106697,429.873418,4553.789457,0.547999,190.940470
2.780000,543.004625,191.148851,-1.396293,184.625088,20.838112,-3.189301,0.000000,10.049210,0.106572,429.620253,4561.320301,0.547252,191.148851
2.790000,544.848949,191.351707,-1.429779,184.432378,20.285598,-3.348594,0.000000,10.127607,0.106459,429.367089,4568.787053,0.546518,191.351707
2.800000,546.691384,191.548984,-1.464796,184.243520,19.727684,-3.501667,0.000000,10.204698,0.106357,429.113924,4576.189713,0.545797,191.548984
2.810000,548.531974,191.740634,-1.501275,184.058992,19.165078,-3.647969,0.000000,10.280484,0.106266,428.860759,4583.528281,0.545092,191.740634
2.820000,550.370766,191.926620,-1.539143,183.879199,18.598519,-3.786805,0.000000,10.354969,0.106187,428.607595,4590.802756,0.544405,191.926620
2.830000,552.207811,192.106908,-1.578316,183.704481,18.028799,-3.917287,0.000000,10.428154,0.106119,428.354430,4598.013139,0.543736,192.106908
2.840000,554.043162,192.281476,-1.618699,183.535117,17.456806,-4.038261,0.000000,10.500041,0.106062,428.101266,4605.159430,0.543086,192.281476
2.850000,555.876875,192.450311,-1.660181,183.371330,16.883580,-4.148202,0.000000,10.570658,0.106016,427.848101,4612.241628,0.542457,192.450311
2.860000,557.709008,192.613415,-1.702631,183.213290,16.310413,-4.245042,0.000000,10.640039,0.105981,427.594937,4619.259734,0.541849,192.613415
2.870000,559.539619,192.770806,-1.745890,183.061108,15.739042,-4.325894,0.000000,10.708214,0.105957,427.341772,4626.213748,0.541262,192.770806
2.880000,561.368768,192.922526,-1.789756,182.914826,15.172030,-4.386610,0.000000,10.775216,0.105943,427.088608,4633.103669,0.540698,192.922526
2.890000,563.196511,193.068662,-1.833967,182.774379,14.613573,-4.421034,0.000000,10.841075,0.105940,426.835443,4639.929498,0.540155,193.068662
2.900000,565.022906,193.209376,-1.878165,182.639495,14.071363,-4.419818,0.000000,10.905823,0.105947,426.582278,4646.691235,0.539635,193.209376
2.910000,566.848001,193.344987,-1.921855,182.509416,13.561109,-4.369037,0.000000,10.969486,0.105965,426.329114,4653.388880,0.539137,193.344987
2.920000,568.671822,193.476155,-1.964376,182.382152,13.116849,-4.252053,0.000000,11.032064,0.105993,426.075949,4660.022432,0.538661,193.476155
2.930000,570.494355,193.604172,-2.005082,182.253324,12.801707,-4.070597,0.000000,11.093559,0.106031,425.822785,4666.591892,0.538205,193.604172
2.940000,572.315562,193.730795,-2.043785,182.120662,12.662258,-3.870287,0.000000,11.153988,0.106079,425.569620,4673.097260,0.537775,193.730795
2.950000,574.135471,193.857270,-2.080723,181.990904,12.647523,-3.693874,0.000000,11.213399,0.106137,425.316456,4679.538535,0.537381,193.857270
2.960000,575.954169,193.984164,-2.116299,181.869758,12.689400,-3.557585,0.000000,11.271838,0.106204,425.063291,4685.915719,0.537026,193.984164
2.970000,577.771774,194.111687,-2.150836,181.760529,12.752315,-3.453699,0.000000,11.329349,0.106281,424.810127,4692.228809,0.536713,194.111687
2.980000,579.588420,194.239895,-2.184569,181.664568,12.820774,-3.373230,0.000000,11.385975,0.106368,424.556962,4698.477808,0.536442,194.239895
2.990000,581.404242,194.368774,-2.217666,181.582257,12.887884,-3.309702,0.000000,11.441759,0.106463,424.303797,4704.662714,0.536212,194.368774
3.000000,583.219377,194.498278,-2.250253,181.513510,12.950414,-3.258742,0.000000,11.496743,0.106568,424.050633,4710.783528,0.536021,194.498278
3.010000,585.033957,194.628346,-2.282427,181.458014,13.006801,-3.217365,0.000000,11.550968,0.106682,423.797468,4716.840250,0.535868,194.628346
3.020000,586.848111,194.758909,-2.314261,181.415335,13.056302,-3.183479,0.000000,11.604474,0.106805,423.544304,4722.832879,0.535752,194.758909
3.030000,588.661960,194.889895,-2.345817,181.384972,13.098597,-3.155572,0.000000,11.657302,0.106937,423.291139,4728.761416,0.535672,194.889895
3.040000,590.475624,195.021231,-2.377142,181.366393,13.133594,-3.132524,0.000000,11.709490,0.107077,423.037975,4734.625861,0.535624,195.021231
3.050000,592.289215,195.152844,-2.408277,181.359043,13.161324,-3.113480,0.000000,11.761078,0.107226,422.784810,4740.426214,0.535608,195.152844
3.060000,594.102838,195.284663,-2.439255,181.362363,13.181890,-3.097779,0.000000,11.812104,0.107384,422.531646,4746.162474,0.535622,195.284663
3.070000,595.916596,195.416617,-2.470104,181.375789,13.195427,-3.084894,0.000000,11.862606,0.107549,422.278481,4751.834642,0.535665,195.416617
3.080000,597.730584,195.548638,-2.500848,181.398757,13.202089,-3.074403,0.000000,11.912622,0.107722,422.025316,4757.442718,0.535734,195.548638
3.090000,599.544891,195.680658,-2.531508,181.430708,13.202030,-3.065959,0.000000,11.962188,0.107904,421.772152,4762.986701,0.535828,195.680658
3.100000,601.359602,195.812612,-2.562100,181.471085,13.195403,-3.059274,0.000000,12.011342,0.108093,421.518987,4768.466592,0.535946,195.812612
3.110000,603.174795,195.944436,-2.592641,181.519336,13.182349,-3.054107,0.000000,12.060121,0.108290,421.265823,4773.882391,0.536085,195.944436
3.120000,604.990544,196.076066,-2.623144,181.574916,13.163001,-3.050252,0.000000,12.108561,0.108494,421.012658,4779.234097,0.536245,196.076066
3.130000,606.806917,196.207441,-2.653619,181.637280,13.137474,-3.047532,0.000000,12.156698,0.108705,420.759494,4784.521711,0.536423,196.207441
3.140000,608.623976,196.338499,-2.684077,181.705891,13.105872,-3.045793,0.000000,12.204569,0.108924,420.506329,4789.745233,0.536619,196.338499
3.150000,610.441778,196.469182,-2.714526,181.780214,13.068281,-3.044898,0.000000,12.252210,0.109150,420.253165,4794.904663,0.536830,196.469182
3.160000,612.260375,196.599430,-2.744973,181.859716,13.024771,-3.044725,0.000000,12.299657,0.109382,420.000000,4800.000000,0.537055,196.599430
3.170000,614.079814,196.729184,-2.775425,181.943868,12.975397,-3.045167,0.000000,12.346945,0.109621,419.746835,4805.031245,0.537293,196.729184
3.180000,615.900135,196.858386,-2.805886,182.032140,12.920196,-3.046121,0.000000,12.394112,0.109867,419.493671,4809.998398,0.537541,196.858386
3.190000,617.721375,196.986978,-2.836361,182.124004,12.859190,-3.047495,0.000000,12.441193,0.110119,419.240506,4814.901458,0.537799,196.986978
3.200000,619.543565,197.114902,-2.866853,182.218931,12.792384,-3.049202,0.000000,12.488225,0.110377,418.987342,4819.740426,0.538065,197.114902
3.210000,621.366729,197.242099,-2.897365,182.316390,12.719768,-3.051159,0.000000,12.535242,0.110641,418.734177,4824.515302,0.538338,197.242099
3.220000,623.190887,197.368512,-2.927898,182.415848,12.641313,-3.053284,0.000000,12.582283,0.110911,418.481013,4829.226086,0.538615,197.368512
3.230000,625.016055,197.494082,-2.958453,182.516768,12.556977,-3.055499,0.000000,12.629384,0.111187,418.227848,4833.872777,0.538895,197.494082
3.240000,626.842241,197.618749,-2.989030,182.618608,12.466700,-3.057724,0.000000,12.676580,0.111468,417.974684,4838.455376,0.539177,197.618749
3.250000,628.669449,197.742453,-3.019629,182.720819,12.370406,-3.059879,0.000000,12.723910,0.111754,417.721519,4842.973882,0.539459,197.742453
3.260000,630.497678,197.865133,-3.050247,182.822848,12.268003,-3.061882,0.000000,12.771410,0.112046,417.468354,4847.428297,0.539739,197.865133
3.270000,632.326919,197.986727,-3.080884,182.924131,12.159385,-3.063648,0.000000,12.819118,0.112343,417.215190,4851.818619,0.540016,197.986727
3.280000,634.157160,198.107171,-3.111535,183.024096,12.044426,-3.065085,0.000000,12.867072,0.112644,416.962025,4856.144849,0.540288,198.107171
3.290000,635.988381,198.226401,-3.142196,183.122161,11.922987,-3.066096,0.000000,12.915309,0.112950,416.708861,4860.406986,0.540554,198.226401
3.300000,637.820559,198.344350,-3.172862,183.217733,11.794911,-3.066578,0.000000,12.963869,0.113261,416.455696,4864.605031,0.540811,198.344350
3.310000,639.653661,198.460951,-3.203526,183.310203,11.660027,-3.066413,0.000000,13.012790,0.113576,416.202532,4868.738984,0.541058,198.460951
3.320000,641.487650,198.576132,-3.234180,183.398954,11.518148,-3.065476,0.000000,13.062111,0.113895,415.949367,4872.808845,0.541293,198.576132
3.330000,643.322484,198.689823,-3.264817,183.483349,11.369068,-3.063623,0.000000,13.111872,0.114218,415.696203,4876.814613,0.541515,198.689823
3.340000,645.158111,198.801949,-3.295424,183.562740,11.212571,-3.060692,0.000000,13.162114,0.114544,415.443038,4880.756289,0.541720,198.801949
3.350000,646.994476,198.912433,-3.325989,183.636459,11.048423,-3.056500,0.000000,13.212877,0.114874,415.189873,4884.633873,0.541908,198.912433
3.360000,648.831514,199.021197,-3.356497,183.703824,10.876380,-3.050832,0.000000,13.264202,0.115208,414.936709,4888.447364,0.542076,199.021197
3.370000,650.669155,199.128158,-3.386931,183.764133,10.696185,-3.043441,0.000000,13.316130,0.115544,414.683544,4892.196763,0.542223,199.128158
3.380000,652.507322,199.233234,-3.417272,183.816666,10.507576,-3.034032,0.000000,13.368705,0.115884,414.430380,4895.882070,0.542346,199.233234
3.390000,654.345929,199.336337,-3.447494,183.860688,10.310287,-3.022254,0.000000,13.421970,0.116227,414.177215,4899.503285,0.542442,199.336337
3.400000,656.184883,199.437378,-3.477571,183.895442,10.104055,-3.007683,0.000000,13.475966,0.116572,413.924051,4903.060407,0.542511,199.437378
3.410000,658.024085,199.536264,-3.507469,183.920155,9.888637,-2.989797,0.000000,13.530739,0.116920,413.670886,4906.553437,0.542549,199.536264
3.420000,659.863425,199.632902,-3.537148,183.934038,9.663823,-2.967943,0.000000,13.586334,0.117269,413.417722,4909.982375,0.542554,199.632902
3.430000,661.702788,199.727197,-3.566561,183.936289,9.429468,-2.941292,0.000000,13.642795,0.117622,413.164557,4913.347220,0.542524,199.727197
3.440000,663.542049,199.819052,-3.595649,183.926094,9.185544,-2.908765,0.000000,13.700168,0.117975,412.911392,4916.647973,0.542457,199.819052
3.450000,665.381075,199.908375,-3.624338,183.902635,8.932232,-2.868926,0.000000,13.758502,0.118331,412.658228,4919.884634,0.542350,199.908375
3.460000,667.219726,199.995075,-3.652536,183.865097,8.670088,-2.819805,0.000000,13.817841,0.118688,412.405063,4923.057202,0.542201,199.995075
3.470000,669.057853,200.079079,-3.680122,183.812681,8.400382,-2.758623,0.000000,13.878236,0.119047,412.151899,4926.165679,0.542008,200.079079
3.480000,670.895299,200.160337,-3.706936,183.744622,8.125802,-2.681328,0.000000,13.939734,0.119407,411.898734,4929.210062,0.541768,200.160337
3.490000,672.731902,200.238858,-3.732755,183.660213,7.852100,-2.581886,0.000000,14.002385,0.119768,411.645570,4932.190354,0.541481,200.238858
3.500000,674.567490,200.314780,-3.757270,183.558811,7.592161,-2.451529,0.000000,14.066239,0.120130,411.392405,4935.106553,0.541146,200.314780
3.510000,676.401887,200.388542,-3.780074,183.439714,7.376235,-2.280415,0.000000,14.131346,0.120492,411.139241,4937.958660,0.540763,200.388542
3.520000,678.234903,200.461237,-3.800820,183.301582,7.269435,-2.074556,0.000000,14.197759,0.120855,410.886076,4940.746675,0.540338,200.461237
3.530000,680.066346,200.534697,-3.819620,183.144364,7.345995,-1.880040,0.000000,14.265507,0.121218,410.632911,4943.470598,0.539878,200.534697
3.540000,681.896067,200.610463,-3.837105,182.972044,7.576613,-1.748518,0.000000,14.334590,0.121582,410.379747,4946.130428,0.539395,200.610463
3.550000,683.723940,200.689322,-3.854022,182.787285,7.885947,-1.691693,0.000000,14.405006,0.121945,410.126582,4948.726166,0.538889,200.689322
3.560000,685.549858,200.771627,-3.870933,182.591872,8.230522,-1.691063,0.000000,14.476753,0.122308,409.873418,4951.257811,0.538359,200.771627
3.570000,687.373725,200.857535,-3.888232,182.386693,8.590791,-1.729971,0.000000,14.549828,0.122671,409.620253,4953.725365,0.537806,200.857535
3.580000,689.195448,200.947110,-3.906206,182.172240,8.957505,-1.797364,0.000000,14.624231,0.123034,409.367089,4956.128826,0.537230,200.947110
3.590000,691.014936,201.040368,-3.925067,181.948862,9.325715,-1.886124,0.000000,14.699959,0.123396,409.113924,4958.468194,0.536630,201.040368
3.600000,692.832105,201.137292,-3.944983,181.716875,9.692416,-1.991546,0.000000,14.777009,0.123757,408.860759,4960.743471,0.536008,201.137292
3.610000,694.646871,201.237847,-3.966087,181.476614,10.055548,-2.110414,0.000000,14.855380,0.124117,408.607595,4962.954655,0.535364,201.237847
3.620000,696.459156,201.341983,-3.988491,181.228460,10.413558,-2.240450,0.000000,14.935067,0.124476,408.354430,4965.101747,0.534699,201.341983
3.630000,698.268884,201.449635,-4.012291,180.972853,10.765182,-2.379994,0.000000,15.016070,0.124834,408.101266,4967.184746,0.534014,201.449635
3.640000,700.075987,201.560728,-4.037569,180.710302,11.109333,-2.527801,0.000000,15.098384,0.125191,407.848101,4969.203653,0.533310,201.560728
3.650000,701.880401,201.675178,-4.064399,180.441396,11.445044,-2.682923,0.000000,15.182006,0.125546,407.594937,4971.158468,0.532588,201.675178
3.660000,703.682069,201.792893,-4.092845,180.166811,11.771426,-2.844622,0.000000,15.266932,0.125899,407.341772,4973.049191,0.531851,201.792893
3.670000,705.480943,201.913769,-4.122968,179.887321,12.087649,-3.012318,0.000000,15.353159,0.126251,407.088608,4974.875821,0.531100,201.913769
3.680000,707.276981,202.037698,-4.154824,179.603827,12.392904,-3.185554,0.000000,15.440683,0.126600,406.835443,4976.638359,0.530338,202.037698
3.690000,709.070155,202.164562,-4.188463,179.317405,12.686346,-3.363975,0.000000,15.529497,0.126948,406.582278,4978.336805,0.529567,202.164562
3.700000,710.860450,202.294231,-4.223936,179.029462,12.966935,-3.547311,0.000000,15.619594,0.127293,406.329114,4979.971158,0.528791,202.294231
3.710000,712.647873,202.426559,-4.261290,178.742325,13.232808,-3.735373,0.000000,15.710963,0.127637,406.075949,4981.541420,0.528017,202.426559
3.720000,714.432507,202.561326,-4.300571,178.463453,13.476698,-3.928092,0.000000,15.803366,0.127977,405.822785,4983.047589,0.527265,202.561326
3.730000,716.215215,202.691869,-4.341747,178.270775,13.054292,-4.117610,0.000000,15.894695,0.128316,405.569620,4984.489665,0.526620,202.691869
3.740000,717.995633,202.817498,-4.384746,178.041803,12.562913,-4.299895,0.000000,15.984773,0.128651,405.316456,4985.867649,0.525857,202.817498
3.750000,719.773741,202.938063,-4.429506,177.810791,12.056524,-4.475938,0.000000,16.073585,0.128984,405.063291,4987.181541,0.525089,202.938063
3.760000,721.549552,203.053455,-4.475961,177.581062,11.539171,-4.645518,0.000000,16.161128,0.129314,404.810127,4988.431341,0.524327,203.053455
3.770000,723.323093,203.163579,-4.524043,177.354149,11.012445,-4.808269,0.000000,16.247403,0.129641,404.556962,4989.617049,0.523575,203.163579
3.780000,725.094404,203.268354,-4.573681,177.131116,10.477425,-4.963711,0.000000,16.332409,0.129966,404.303797,4990.738664,0.522838,203.268354
3.790000,726.863532,203.367704,-4.624793,176.912814,9.935070,-5.111241,0.000000,16.416148,0.130286,404.050633,4991.796187,0.522117,203.367704
3.800000,728.630532,203.461568,-4.677294,176.699960,9.386335,-5.250095,0.000000,16.498622,0.130604,403.797468,4992.789617,0.521416,203.461568
3.810000,730.395464,203.549890,-4.731087,176.493172,8.832237,-5.379310,0.000000,16.579861,0.130919,403.544304,4993.718955,0.520736,203.549890
3.820000,732.158394,203.632629,-4.786063,176.292986,8.273906,-5.497642,0.000000,16.659907,0.131230,403.291139,4994.584201,0.520079,203.632629
3.830000,733.919392,203.709756,-4.842098,176.099865,7.712658,-5.603456,0.000000,16.738799,0.131537,403.037975,4995.385355,0.519446,203.709756
3.840000,735.678534,203.781257,-4.899044,175.914213,7.150114,-5.694560,0.000000,16.816580,0.131841,402.784810,4996.122416,0.518839,203.781257
3.850000,737.435898,203.847141,-4.956723,175.736382,6.588420,-5.767936,0.000000,16.893290,0.132141,402.531646,4996.795385,0.518259,203.847141
3.860000,739.191565,203.907448,-5.014916,175.566680,6.030669,-5.819325,0.000000,16.968940,0.132438,402.278481,4997.404262,0.517706,203.907448
3.870000,740.945619,203.962266,-5.073342,175.405377,5.481782,-5.842580,0.000000,17.043533,0.132730,402.025316,4997.949047,0.517181,203.962266
3.880000,742.698146,204.011770,-5.131630,175.252690,4.950406,-5.828787,0.000000,17.117069,0.133019,401.772152,4998.429739,0.516684,204.011770
3.890000,744.449233,204.056301,-5.189287,175.108726,4.453118,-5.765739,0.000000,17.189550,0.133304,401.518987,4998.846339,0.516215,204.056301
3.900000,746.198965,204.096525,-5.245702,174.973226,4.022422,-5.641434,0.000000,17.260977,0.133585,401.265823,4999.198846,0.515774,204.096525
3.910000,747.947415,204.133631,-5.300328,174.844982,3.710624,-5.462601,0.000000,17.331351,0.133861,401.012658,4999.487262,0.515360,204.133631
3.920000,749.694658,204.169147,-5.353006,174.724283,3.551573,-5.267817,0.000000,17.400692,0.134134,400.759494,4999.711585,0.514978,204.169147
3.930000,751.440809,204.204201,-5.403929,174.615108,3.505425,-5.092305,0.000000,17.469052,0.134402,400.506329,4999.871815,0.514638,204.204201
3.940000,753.186002,204.239356,-5.453459,174.519294,3.515425,-4.952989,0.000000,17.536482,0.134666,400.253165,4999.967954,0.514345,204.239356
3.950000,754.930385,204.274835,-5.501911,174.438347,3.547968,-4.845249,0.000000,17.603032,0.134926,400.000000,5000.000000,0.514100,204.274835
3.960000,756.674114,204.310705,-5.549525,174.372901,3.587004,-4.761399,0.000000,17.668750,0.135181,399.746835,4999.967954,0.513903,204.310705
3.970000,758.417344,204.346955,-5.596478,174.322993,3.625002,-4.695299,0.000000,17.733686,0.135431,399.493671,4999.871815,0.513754,204.346955
3.980000,760.160227,204.383539,-5.642904,174.288315,3.658331,-4.642577,0.000000,17.797885,0.135678,399.240506,4999.711585,0.513650,204.383539
3.990000,761.902911,204.420391,-5.688905,174.268362,3.685219,-4.600149,0.000000,17.861395,0.135919,398.987342,4999.487262,0.513590,204.420391
4.000000,763.645536,204.457439,-5.734563,174.262511,3.704825,-4.565807,0.000000,17.924262,0.136156,398.734177,4999.198846,0.513571,204.457439
4.010000,765.388237,204.494607,-5.779943,174.270070,3.716799,-4.537932,0.000000,17.986532,0.136389,398.481013,4998.846339,0.513592,204.494607
4.020000,767.131140,204.531818,-5.825096,174.290303,3.721052,-4.515306,0.000000,18.048249,0.136616,398.227848,4998.429739,0.513651,204.531818
4.030000,768.874364,204.568994,-5.870066,174.322447,3.717640,-4.496995,0.000000,18.109458,0.136839,397.974684,4997.949047,0.513744,204.568994
4.040000,770.618022,204.606061,-5.914888,174.365719,3.706693,-4.482266,0.000000,18.170205,0.137057,397.721519,4997.404262,0.513870,204.606061
4.050000,772.362215,204.642945,-5.959594,174.419325,3.688377,-4.470533,0.000000,18.230532,0.137270,397.468354,4996.795385,0.514026,204.642945
4.060000,774.107039,204.679573,-6.004207,174.482463,3.662872,-4.461319,0.000000,18.290485,0.137479,397.215190,4996.122416,0.514209,204.679573
4.070000,775.852583,204.715877,-6.048749,174.554324,3.630352,-4.454231,0.000000,18.350106,0.137682,396.962025,4995.385355,0.514419,204.715877
4.080000,777.598924,204.751787,-6.093239,174.634095,3.590982,-4.448937,0.000000,18.409440,0.137880,396.708861,4994.584201,0.514651,204.751787
4.090000,779.346133,204.787236,-6.137690,174.720958,3.544908,-4.445154,0.000000,18.468531,0.138074,396.455696,4993.718955,0.514904,204.787236
4.100000,781.094274,204.822158,-6.182117,174.814095,3.492255,-4.442638,0.000000,18.527421,0.138262,396.202532,4992.789617,0.515175,204.822158
4.110000,782.843401,204.856490,-6.226528,174.912680,3.433121,-4.441172,0.000000,18.586154,0.138446,395.949367,4991.796187,0.515462,204.856490
4.120000,784.593560,204.890165,-6.270934,175.015885,3.367584,-4.440563,0.000000,18.644775,0.138624,395.696203,4990.738664,0.515762,204.890165
4.130000,786.344789,204.923122,-6.315340,175.122879,3.295691,-4.440634,0.000000,18.703326,0.138797,395.443038,4989.617049,0.516073,204.923122
4.140000,788.097117,204.955297,-6.359752,175.232824,3.217464,-4.441220,0.000000,18.761851,0.138965,395.189873,4988.431341,0.516393,204.955297
4.150000,789.850566,204.986626,-6.404174,175.344875,3.132897,-4.442164,0.000000,18.820396,0.139128,394.936709,4987.181541,0.516718,204.986626
4.160000,791.605147,205.017045,-6.448607,175.458184,3.041959,-4.443314,0.000000,18.879003,0.139286,394.683544,4985.867649,0.517047,205.017045
4.170000,793.360866,205.046491,-6.493052,175.571891,2.944590,-4.444520,0.000000,18.937718,0.139438,394.430380,4984.489665,0.517378,205.046491
4.180000,795.117718,205.074898,-6.537509,175.685130,2.840703,-4.445630,0.000000,18.996585,0.139586,394.177215,4983.047589,0.517706,205.074898
4.190000,796.875688,205.102200,-6.581974,175.797025,2.730186,-4.446487,0.000000,19.055649,0.139728,393.924051,4981.541420,0.518031,205.102200
4.200000,798.634755,205.128329,-6.626443,175.906689,2.612900,-4.446924,0.000000,19.114955,0.139865,393.670886,4979.971158,0.518348,205.128329
4.210000,800.394887,205.153216,-6.670911,176.013225,2.488681,-4.446763,0.000000,19.174551,0.139996,393.417722,4978.336805,0.518657,205.153216
